{"success":true,"stations":[
    {
        "id":10002,"name":"Clean Energy - Boundary & Dominion","status":"2","address":"3030 Boundary Rd",
        "city":"Burnaby","state":"BC","zip":"V5M 4A1","country":"Canada","latitude":49.256472,"longitude":-123.023465,"type":"0",
        "fuel":"0","open":"7:00","close":"19:00","monday":"Yes","tuesday":"Yes","wednesday":"Yes","thursday":"Yes","friday":"Yes",
        "saturday":"No","sunday":"","vehicle":0,"payment":"0","flow":0,"special":"nothing special"
    },{
        "id":10004,"name":"Clean Energy - Cloverdale Chevron","status":"2","address":"17790 56th Ave","city":"Surrey","state":"BC",
        "zip":"V3S 1C7","country":"Canada","latitude":49.103785,"longitude":-122.729808,"type":"0","fuel":"0","open":"8:00",
        "close":"20:00","monday":"Yes","tuesday":"Yes","wednesday":"Yes","thursday":"Yes","friday":"Yes","saturday":"No",
        "sunday":"","vehicle":0,"payment":"0","flow":0,"special":""
    },{
        "id":10005,"name":"Clean Energy - 1st & Nanaimo Chevron","status":"1","address":"1720 Nanaimo Street","city":"Vancouver","state":"BC","zip":"V5N 5B9","country":"Canada","latitude":49.269154,"longitude":-123.056145,"type":"0","fuel":"0","open":"9:00","close":"21:00","monday":"Yes","tuesday":"Yes","wednesday":"Yes","thursday":"Yes","friday":"Yes","saturday":"No","sunday":"","vehicle":0,"payment":"0","flow":0,"special":""},{"id":10025,"name":"Clean Energy - Mayfair Petro Canada","status":"1","address":"176 Golden Dr","city":"Coquitlam","state":"BC","zip":"V3K 6J1","country":"Canada","latitude":49.233009,"longitude":-122.819898,"type":"0","fuel":"0","open":"10:00","close":"22:00","monday":"Yes","tuesday":"Yes","wednesday":"Yes","thursday":"Yes","friday":"Yes","saturday":"No","sunday":"","vehicle":0,"payment":"0","flow":0,"special":""},{"id":10030,"name":"Clean Energy - United Petroleum Products","status":"1","address":"3373 Norland Ave","city":"Burnaby","state":"BC","zip":"V5B 3A9","country":"Canada","latitude":49.254435,"longitude":-122.975402,"type":"0","fuel":"1","open":"11:00","close":"23:00","monday":"Yes","tuesday":"Yes","wednesday":"Yes","thursday":"Yes","friday":"Yes","saturday":"No","sunday":"","vehicle":0,"payment":"0","flow":0,"special":""},{"id":13000,"name":"Clean Energy - San Francisco Olympian Oil","status":"1","address":"2690 Third Street","city":"San Francisco","state":"CA","zip":"94107","country":"USA","latitude":37.755584,"longitude":-122.388208,"type":"0","fuel":"0","open":"12:00","close":"0:00","monday":"Yes","tuesday":"Yes","wednesday":"Yes","thursday":"Yes","friday":"Yes","saturday":"No","sunday":"","vehicle":0,"payment":"0","flow":0,"special":""},{"id":13003,"name":"Clean Energy - Elk Grove","status":"1","address":"9050 Elkmont Way","city":"Elk Grove","state":"CA","zip":"95624","country":"USA","latitude":38.38145065,"longitude":-121.364357,"type":"0","fuel":"0","open":"13:00","close":"1:00","monday":"Yes","tuesday":"Yes","wednesday":"Yes","thursday":"Yes","friday":"Yes","saturday":"No","sunday":"","vehicle":0,"payment":"0","flow":0,"special":""},{"id":13010,"name":"Clean Energy - Oakland International Airport","status":"1","address":"7855 Earhart Road","city":"Oakland","state":"CA","zip":"94621","country":"USA","latitude":37.735089,"longitude":-122.21529,"type":"0","fuel":"0","open":"14:00","close":"2:00","monday":"Yes","tuesday":"Yes","wednesday":"Yes","thursday":"Yes","friday":"Yes","saturday":"No","sunday":"","vehicle":0,"payment":"0","flow":0,"special":""},{"id":13030,"name":"Clean Energy - Westwood - UCLA","status":"1","address":"741 Charles Young Drive","city":"Los Angeles","state":"CA","zip":"90095","country":"USA","latitude":34.067611,"longitude":-118.447872,"type":"0","fuel":"0","open":"15:00","close":"3:00","monday":"Yes","tuesday":"Yes","wednesday":"Yes","thursday":"Yes","friday":"Yes","saturday":"No","sunday":"","vehicle":0,"payment":"0","flow":1,"special":""},{"id":13040,"name":"Clean Energy - San Luis Obispo","status":"1","address":"75 Prado Road","city":"San Luis Obispo","state":"CA","zip":"93401","country":"USA","latitude":35.255062,"longitude":-120.670604,"type":"0","fuel":"0","open":"16:00","close":"4:00","monday":"Yes","tuesday":"Yes","wednesday":"Yes","thursday":"Yes","friday":"Yes","saturday":"No","sunday":"","vehicle":0,"payment":"0","flow":1,"special":""},{"id":13090,"name":"Clean Energy - Port of Oakland","status":"1","address":"205 Brush Street","city":"Oakland","state":"CA","zip":"94607","country":"USA","latitude":37.798972,"longitude":-122.283854,"type":"0","fuel":"0","open":"17:00","close":"5:00","monday":"Yes","tuesday":"Yes","wednesday":"Yes","thursday":"Yes","friday":"Yes","saturday":"No","sunday":"","vehicle":0,"payment":"0","flow":1,"special":""},{"id":13100,"name":"Clean Energy - Burbank","status":"1","address":"810 North Lake Street","city":"Burbank","state":"CA","zip":"91502","country":"USA","latitude":34.182974,"longitude":-118.319506,"type":"0","fuel":"0","open":"18:00","close":"6:00","monday":"Yes","tuesday":"Yes","wednesday":"Yes","thursday":"Yes","friday":"Yes","saturday":"No","sunday":"","vehicle":0,"payment":"0","flow":1,"special":""},{"id":13105,"name":"Clean Energy - Glendale","status":"1","address":"1711 Gardena Ave","city":"Glendale","state":"CA","zip":"91204","country":"USA","latitude":34.123589,"longitude":-118.258046,"type":"0","fuel":"0","open":"19:00","close":"7:00","monday":"Yes","tuesday":"Yes","wednesday":"Yes","thursday":"Yes","friday":"Yes","saturday":"No","sunday":"","vehicle":0,"payment":"0","flow":1,"special":""},{"id":13109,"name":"Clean Energy - Chula Vista","status":"1","address":"1720 Maxwell Road","city":"Chula Vista","state":"CA","zip":"91911","country":"USA","latitude":32.59793,"longitude":-117.0185,"type":"0","fuel":"0","open":"20:00","close":"8:00","monday":"Yes","tuesday":"Yes","wednesday":"Yes","thursday":"Yes","friday":"Yes","saturday":"No","sunday":"","vehicle":0,"payment":"0","flow":1,"special":""},{"id":13110,"name":"Clean Energy - Pasadena -  Southern California Gas Company Base","status":"1","address":"3566 East Foothill Blvd","city":"Pasadena","state":"CA","zip":"91107","country":"USA","latitude":34.149948,"longitude":-118.077438,"type":"0","fuel":"0","open":"21:00","close":"9:00","monday":"Yes","tuesday":"Yes","wednesday":"Yes","thursday":"Yes","friday":"Yes","saturday":"No","sunday":"","vehicle":0,"payment":"0","flow":1,"special":""},{"id":13150,"name":"Clean Energy - Downtown Los Angeles -  Los Angeles County Garage","status":"1","address":"1001 N. Alameda Street","city":"Los Angeles","state":"CA","zip":"90012","country":"USA","latitude":34.060172,"longitude":-118.236898,"type":"0","fuel":"1","open":"22:00","close":"10:00","monday":"Yes","tuesday":"Yes","wednesday":"Yes","thursday":"Yes","friday":"Yes","saturday":"No","sunday":"","vehicle":0,"payment":"0","flow":2,"special":""},{"id":13160,"name":"Clean Energy - Port of Long Beach","status":"1","address":"3400 East I Street","city":"Wilmington","state":"CA","zip":"90744","country":"USA","latitude":33.783111,"longitude":-118.222053,"type":"0","fuel":"0","open":"23:00","close":"11:00","monday":"Yes","tuesday":"Yes","wednesday":"Yes","thursday":"Yes","friday":"Yes","saturday":"No","sunday":"","vehicle":0,"payment":"0","flow":2,"special":""},{"id":13170,"name":"Clean Energy - Pomona -  Foothill Transit","status":"1","address":"1670 E 1st St","city":"Montclair","state":"CA","zip":"91763","country":"USA","latitude":34.059287,"longitude":-117.722129,"type":"0","fuel":"0","open":"0:00","close":"12:00","monday":"Yes","tuesday":"Yes","wednesday":"Yes","thursday":"Yes","friday":"Yes","saturday":"No","sunday":"","vehicle":0,"payment":"0","flow":2,"special":""},{"id":13196,"name":"Clean Energy - LAX - Hertz","status":"1","address":"9225 Aviation Blvd","city":"Los Angeles","state":"CA","zip":"90045","country":"USA","latitude":33.956294,"longitude":-118.377032,"type":"0","fuel":"0","open":"1:00","close":"13:00","monday":"Yes","tuesday":"Yes","wednesday":"Yes","thursday":"Yes","friday":"Yes","saturday":"No","sunday":"","vehicle":0,"payment":"0","flow":2,"special":""},{"id":13200,"name":"Clean Energy - Los Angeles International Airport","status":"1","address":"10400 Aviation Blvd","city":"Los Angeles","state":"CA","zip":"90045","country":"USA","latitude":33.94165802,"longitude":-118.3780136,"type":"0","fuel":"0","open":"2:00","close":"14:00","monday":"Yes","tuesday":"Yes","wednesday":"Yes","thursday":"Yes","friday":"Yes","saturday":"No","sunday":"","vehicle":0,"payment":"0","flow":2,"special":""},{"id":13201,"name":"Clean Energy - Los Angeles - La Cienega","status":"1","address":"1004 S. La Cienega Blvd","city":"Los Angeles","state":"CA","zip":"90035","country":"USA","latitude":34.059388,"longitude":-118.375858,"type":"0","fuel":"1","open":"3:00","close":"15:00","monday":"Yes","tuesday":"Yes","wednesday":"Yes","thursday":"Yes","friday":"Yes","saturday":"No","sunday":"","vehicle":0,"payment":"0","flow":2,"special":""},{"id":13213,"name":"Clean Energy - City of Commerce","status":"1","address":"5940 Sheila Street","city":"Los Angeles","state":"CA","zip":"90040","country":"USA","latitude":33.994629,"longitude":-118.152242,"type":"0","fuel":"0","open":"4:00","close":"16:00","monday":"Yes","tuesday":"Yes","wednesday":"Yes","thursday":"Yes","friday":"Yes","saturday":"No","sunday":"","vehicle":0,"payment":"0","flow":2,"special":""},{"id":13235,"name":"Clean Energy - City of Torrance","status":"1","address":"20500 Madrona Ave","city":"Torrance","state":"CA","zip":"90503","country":"USA","latitude":33.846788,"longitude":-118.344743,"type":"0","fuel":"0","open":"5:00","close":"17:00","monday":"Yes","tuesday":"Yes","wednesday":"Yes","thursday":"Yes","friday":"Yes","saturday":"No","sunday":"","vehicle":0,"payment":"0","flow":2,"special":""},{"id":13240,"name":"Clean Energy - Seal Beach","status":"1","address":"3101 North Gate Rd","city":"Seal Beach","state":"CA","zip":"90740","country":"USA","latitude":33.773534,"longitude":-118.077463,"type":"0","fuel":"2","open":"6:00","close":"18:00","monday":"Yes","tuesday":"Yes","wednesday":"Yes","thursday":"Yes","friday":"Yes","saturday":"No","sunday":"","vehicle":0,"payment":"0","flow":2,"special":""},{"id":13260,"name":"Clean Energy - Garden Grove-21St Century Oil","status":"1","address":"12931 Garden Grove Blvd","city":"Garden Grove","state":"CA","zip":"92843","country":"USA","latitude":33.774782,"longitude":-117.906598,"type":"0","fuel":"0","open":"7:00","close":"19:00","monday":"Yes","tuesday":"Yes","wednesday":"Yes","thursday":"Yes","friday":"Yes","saturday":"No","sunday":"","vehicle":0,"payment":"0","flow":2,"special":""},{"id":13261,"name":"Clean Energy - Anaheim-Valero station","status":"1","address":"2100 S. Harbor Blvd.","city":"Anaheim","state":"CA","zip":"92802","country":"USA","latitude":33.795941,"longitude":-117.914656,"type":"0","fuel":"0","open":"8:00","close":"20:00","monday":"Yes","tuesday":"Yes","wednesday":"Yes","thursday":"Yes","friday":"Yes","saturday":"No","sunday":"","vehicle":0,"payment":"0","flow":2,"special":""},{"id":13280,"name":"Clean Energy - Fountain Valley - Orange County Sanitation District","status":"1","address":"10844 Ellis Avenue","city":"Fountain Valley","state":"CA","zip":"92708","country":"USA","latitude":33.693799,"longitude":-117.93665,"type":"0","fuel":"0","open":"9:00","close":"21:00","monday":"Yes","tuesday":"Yes","wednesday":"Yes","thursday":"Yes","friday":"Yes","saturday":"No","sunday":"","vehicle":0,"payment":"0","flow":2,"special":""},{"id":13290,"name":"Clean Energy - Santa Ana - SoCal Gas Base","status":"1","address":"3298 Maple St","city":"Santa Ana","state":"CA","zip":"92707","country":"USA","latitude":33.703865,"longitude":-117.863761,"type":"0","fuel":"0","open":"10:00","close":"22:00","monday":"Yes","tuesday":"Yes","wednesday":"Yes","thursday":"Yes","friday":"Yes","saturday":"No","sunday":"","vehicle":0,"payment":"0","flow":2,"special":""},{"id":13291,"name":"Clean Energy - Newport Beach","status":"1","address":"592 Superior Ave","city":"Newport Beach","state":"CA","zip":"92663","country":"USA","latitude":33.632034,"longitude":-117.92754,"type":"0","fuel":"0","open":"11:00","close":"23:00","monday":"Yes","tuesday":"Yes","wednesday":"Yes","thursday":"Yes","friday":"Yes","saturday":"No","sunday":"","vehicle":0,"payment":"0","flow":2,"special":""},{"id":13292,"name":"Clean energy - Orange County Airport Hertz","status":"0","address":"4023 Birch Street","city":"Newport Beach","state":"CA","zip":"92660","country":"USA","latitude":33.665043,"longitude":-117.869965,"type":"0","fuel":"1","open":"12:00","close":"0:00","monday":"Yes","tuesday":"Yes","wednesday":"Yes","thursday":"Yes","friday":"Yes","saturday":"No","sunday":"","vehicle":0,"payment":"0","flow":2,"special":""},{"id":13310,"name":"Clean Energy - Irvine - Irvine City Yard","status":"1","address":"6427 Oak Canyon Road","city":"Irvine","state":"CA","zip":"92618","country":"USA","latitude":33.675556,"longitude":-117.764881,"type":"0","fuel":"0","open":"13:00","close":"1:00","monday":"Yes","tuesday":"Yes","wednesday":"Yes","thursday":"Yes","friday":"Yes","saturday":"No","sunday":"","vehicle":0,"payment":"0","flow":2,"special":""},{"id":13350,"name":"Clean Energy - Waste Manangement - Moreno Valley","status":"1","address":"17700 Indian Avenue","city":"Moreno Valley","state":"CA","zip":"92551","country":"USA","latitude":33.864112,"longitude":-117.231425,"type":"1","fuel":"0","open":"14:00","close":"2:00","monday":"Yes","tuesday":"Yes","wednesday":"Yes","thursday":"Yes","friday":"Yes","saturday":"No","sunday":"","vehicle":0,"payment":"0","flow":2,"special":""},{"id":13360,"name":"Clean Energy - Yucca Valley - Park n Ride Transit Facility","status":"1","address":"7401 Kickapoo Trail","city":"Yucca Valley","state":"CA","zip":"92284","country":"USA","latitude":34.117016,"longitude":-116.457548,"type":"0","fuel":"0","open":"15:00","close":"3:00","monday":"Yes","tuesday":"Yes","wednesday":"Yes","thursday":"Yes","friday":"Yes","saturday":"No","sunday":"","vehicle":0,"payment":"0","flow":2,"special":""},{"id":13370,"name":"Clean Energy - Desert Hot Springs - Mission Springs Water District","status":"1","address":"Park Lane","city":"Desert Hot Springs","state":"CA","zip":"92240","country":"USA","latitude":33.943166,"longitude":-116.497768,"type":"0","fuel":"0","open":"16:00","close":"4:00","monday":"Yes","tuesday":"Yes","wednesday":"Yes","thursday":"Yes","friday":"Yes","saturday":"No","sunday":"","vehicle":0,"payment":"0","flow":2,"special":""},{"id":13380,"name":"Clean Energy - Palm Springs International Airport","status":"1","address":"3400 E. Tahquitz Canyon Way","city":"Palm Springs","state":"CA","zip":"92262","country":"USA","latitude":33.819242,"longitude":-116.509117,"type":"0","fuel":"1","open":"17:00","close":"5:00","monday":"Yes","tuesday":"Yes","wednesday":"Yes","thursday":"Yes","friday":"Yes","saturday":"No","sunday":"","vehicle":0,"payment":"0","flow":2,"special":""},{"id":13410,"name":"Clean Energy - Cathedral City - ARCO","status":"1","address":"36001 Date Palm Dr","city":"Cathedral City","state":"CA","zip":"92234","country":"USA","latitude":33.78644,"longitude":-116.45864,"type":"0","fuel":"0","open":"18:00","close":"6:00","monday":"Yes","tuesday":"Yes","wednesday":"Yes","thursday":"Yes","friday":"Yes","saturday":"No","sunday":"","vehicle":0,"payment":"0","flow":2,"special":""},{"id":13420,"name":"Clean Energy - Burrtec - Palm Desert","status":"1","address":"41801 Corporate Way","city":"Palm Desert","state":"CA","zip":"92260","country":"USA","latitude":33.744973,"longitude":-116.362121,"type":"1","fuel":"0","open":"19:00","close":"7:00","monday":"Yes","tuesday":"Yes","wednesday":"Yes","thursday":"Yes","friday":"Yes","saturday":"No","sunday":"","vehicle":0,"payment":"0","flow":2,"special":""},{"id":13441,"name":"Clean Energy - San Juan Capistrano - Shell","status":"1","address":"26571 Junipero Serra","city":"San Juan Capistrano","state":"CA","zip":"92675","country":"USA","latitude":33.5203743,"longitude":-117.6673279,"type":"0","fuel":"0","open":"20:00","close":"8:00","monday":"Yes","tuesday":"Yes","wednesday":"Yes","thursday":"Yes","friday":"Yes","saturday":"No","sunday":"","vehicle":0,"payment":"0","flow":2,"special":""},{"id":13480,"name":"Clean Energy - Carson","status":"1","address":"2045 Carson Street","city":"Carson","state":"CA","zip":"90810","country":"USA","latitude":33.83207,"longitude":-118.235469,"type":"0","fuel":"1","open":"21:00","close":"9:00","monday":"Yes","tuesday":"Yes","wednesday":"Yes","thursday":"Yes","friday":"Yes","saturday":"No","sunday":"","vehicle":3,"payment":"0","flow":2,"special":""},{"id":13521,"name":"Clean Energy - San Diego Airport - India Shell","status":"1","address":"3535 India Street","city":"San Diego","state":"CA","zip":"92103","country":"USA","latitude":32.739745,"longitude":-117.177864,"type":"0","fuel":"2","open":"22:00","close":"10:00","monday":"Yes","tuesday":"Yes","wednesday":"Yes","thursday":"Yes","friday":"Yes","saturday":"No","sunday":"","vehicle":0,"payment":"0","flow":2,"special":""},{"id":13540,"name":"Clean Energy - Ontario Airport","status":"1","address":"3350 John Bangs Drive","city":"Ontario","state":"CA","zip":"91761","country":"USA","latitude":34.060911,"longitude":-117.578862,"type":"0","fuel":"0","open":"23:00","close":"11:00","monday":"Yes","tuesday":"Yes","wednesday":"Yes","thursday":"Yes","friday":"Yes","saturday":"No","sunday":"","vehicle":0,"payment":"0","flow":2,"special":""},{"id":13565,"name":"Clean Energy - Otay Mesa Pilot - Pilot #343","status":"1","address":"1497 Piper Ranch Road","city":"San Diego","state":"CA","zip":"92154","country":"USA","latitude":32.569254,"longitude":-116.952658,"type":"0","fuel":"1","open":"0:00","close":"12:00","monday":"Yes","tuesday":"Yes","wednesday":"Yes","thursday":"Yes","friday":"Yes","saturday":"No","sunday":"","vehicle":0,"payment":"0","flow":2,"special":""},{"id":13580,"name":"Clean Energy - San Diego - Lindbergh Field","status":"1","address":"2521 Pacific Highway","city":"San Diego","state":"CA","zip":"92101","country":"USA","latitude":32.729914,"longitude":-117.173585,"type":"0","fuel":"0","open":"1:00","close":"13:00","monday":"Yes","tuesday":"Yes","wednesday":"Yes","thursday":"Yes","friday":"Yes","saturday":"No","sunday":"","vehicle":0,"payment":"0","flow":2,"special":""},{"id":13640,"name":"Clean Energy - Seattle-Tacoma International Airport","status":"1","address":"19425 28th Ave S","city":"Seattle","state":"WA","zip":"98188","country":"USA","latitude":47.432619,"longitude":-122.303307,"type":"0","fuel":"0","open":"2:00","close":"14:00","monday":"Yes","tuesday":"Yes","wednesday":"Yes","thursday":"Yes","friday":"Yes","saturday":"No","sunday":"","vehicle":0,"payment":"0","flow":2,"special":""},{"id":13645,"name":"Clean Energy - Downtown Seattle - Spokane St.","status":"1","address":"60 Spokane St","city":"Seattle","state":"WA","zip":"98134","country":"USA","latitude":47.571929,"longitude":-122.336375,"type":"0","fuel":"0","open":"3:00","close":"15:00","monday":"Yes","tuesday":"Yes","wednesday":"Yes","thursday":"Yes","friday":"Yes","saturday":"No","sunday":"","vehicle":0,"payment":"0","flow":2,"special":""},{"id":13660,"name":"Clean Energy - Riverside - Agua Mansa","status":"1","address":"1830 Agua Mansa Rd","city":"Riverside","state":"CA","zip":"92509","country":"USA","latitude":34.023199,"longitude":-117.380669,"type":"0","fuel":"2","open":"4:00","close":"16:00","monday":"Yes","tuesday":"Yes","wednesday":"Yes","thursday":"Yes","friday":"Yes","saturday":"No","sunday":"","vehicle":0,"payment":"0","flow":2,"special":""},{"id":13680,"name":"Clean Energy - San Francisco Airport","status":"1","address":"790 North McDonnell Road","city":"San Francisco","state":"CA","zip":"94128","country":"USA","latitude":37.63239,"longitude":-122.399068,"type":"0","fuel":"0","open":"5:00","close":"17:00","monday":"Yes","tuesday":"Yes","wednesday":"Yes","thursday":"Yes","friday":"Yes","saturday":"No","sunday":"","vehicle":0,"payment":"0","flow":2,"special":""},{"id":13695,"name":"Clean Energy - Fontana Truck Stop","status":"1","address":"14226 Valley Blvd","city":"Fontana","state":"CA","zip":"92335","country":"USA","latitude":34.070226,"longitude":-117.493759,"type":"0","fuel":"0","open":"6:00","close":"18:00","monday":"Yes","tuesday":"Yes","wednesday":"Yes","thursday":"Yes","friday":"Yes","saturday":"No","sunday":"","vehicle":0,"payment":"0","flow":2,"special":""},{"id":13700,"name":"Clean Energy - Canoga Park","status":"1","address":"7711 Canoga Avenue","city":"Canoga Park","state":"CA","zip":"91304","country":"USA","latitude":34.210621,"longitude":-118.59773,"type":"0","fuel":"2","open":"7:00","close":"19:00","monday":"Yes","tuesday":"Yes","wednesday":"Yes","thursday":"Yes","friday":"Yes","saturday":"No","sunday":"","vehicle":0,"payment":"0","flow":2,"special":""},{"id":13710,"name":"Clean Energy - Santa Clarita","status":"1","address":"28273 Alta Vista Avenue","city":"Valencia","state":"CA","zip":"91355","country":"USA","latitude":34.448811,"longitude":-118.575108,"type":"0","fuel":"0","open":"8:00","close":"20:00","monday":"Yes","tuesday":"Yes","wednesday":"Yes","thursday":"Yes","friday":"Yes","saturday":"No","sunday":"","vehicle":0,"payment":"0","flow":2,"special":""},{"id":13730,"name":"Clean Energy - Yellow Cab Co-op","status":"1","address":"1200 Mississippi","city":"San Francisco","state":"CA","zip":"94107","country":"USA","latitude":37.751347,"longitude":-122.39527,"type":"0","fuel":"0","open":"9:00","close":"21:00","monday":"Yes","tuesday":"Yes","wednesday":"Yes","thursday":"Yes","friday":"Yes","saturday":"No","sunday":"","vehicle":0,"payment":"0","flow":2,"special":""},{"id":13740,"name":"Clean Energy - Santa Monica SoCal Gas station","status":"1","address":"1701 Stewart Street","city":"Santa Monica","state":"CA","zip":"90404","country":"USA","latitude":34.031049,"longitude":-118.466894,"type":"1","fuel":"0","open":"10:00","close":"22:00","monday":"Yes","tuesday":"Yes","wednesday":"Yes","thursday":"Yes","friday":"Yes","saturday":"No","sunday":"","vehicle":0,"payment":"0","flow":2,"special":""},{"id":13772,"name":"Clean Energy - Napa Petroleum","status":"1","address":"2008 Redwood Road","city":"Napa","state":"CA","zip":"94558","country":"USA","latitude":38.321152,"longitude":-122.310813,"type":"0","fuel":"0","open":"11:00","close":"23:00","monday":"Yes","tuesday":"Yes","wednesday":"Yes","thursday":"Yes","friday":"Yes","saturday":"No","sunday":"","vehicle":0,"payment":"0","flow":2,"special":""},{"id":13773,"name":"Clean Energy - Republic Services - Boise","status":"1","address":"11101 West Executive Drive","city":"Boise","state":"ID","zip":"83713","country":"USA","latitude":43.609718,"longitude":-116.321493,"type":"1","fuel":"0","open":"12:00","close":"0:00","monday":"Yes","tuesday":"Yes","wednesday":"Yes","thursday":"Yes","friday":"Yes","saturday":"No","sunday":"","vehicle":0,"payment":"0","flow":2,"special":""},{"id":13780,"name":"Clean Energy - Oakland","status":"1","address":"8515 San Leandro Street","city":"Oakland","state":"CA","zip":"94621","country":"USA","latitude":37.746211,"longitude":-122.188413,"type":"0","fuel":"1","open":"13:00","close":"1:00","monday":"Yes","tuesday":"Yes","wednesday":"Yes","thursday":"Yes","friday":"Yes","saturday":"No","sunday":"","vehicle":0,"payment":"0","flow":2,"special":""},{"id":13791,"name":"Clean Energy - City of Tulare","status":"1","address":"3989 South K Street","city":"Tulare","state":"CA","zip":"93274","country":"USA","latitude":36.168941,"longitude":-119.336803,"type":"0","fuel":"0","open":"14:00","close":"2:00","monday":"Yes","tuesday":"Yes","wednesday":"Yes","thursday":"Yes","friday":"Yes","saturday":"No","sunday":"","vehicle":0,"payment":"0","flow":2,"special":""},{"id":13880,"name":"Clean Energy - Los Angeles County Sanitation District - Whittier","status":"1","address":"3212 Workman Mill Road","city":"Whittier","state":"CA","zip":"90601","country":"USA","latitude":34.023516,"longitude":-118.03447,"type":"0","fuel":"0","open":"15:00","close":"3:00","monday":"Yes","tuesday":"Yes","wednesday":"Yes","thursday":"Yes","friday":"Yes","saturday":"No","sunday":"","vehicle":0,"payment":"0","flow":2,"special":""},{"id":13890,"name":"Clean Energy - Sanitation Districts of Los Angeles County","status":"1","address":"23924 Figueroa Street","city":"Carson","state":"CA","zip":"90745","country":"USA","latitude":33.807401,"longitude":-118.284041,"type":"0","fuel":"1","open":"16:00","close":"4:00","monday":"Yes","tuesday":"Yes","wednesday":"Yes","thursday":"Yes","friday":"Yes","saturday":"No","sunday":"","vehicle":0,"payment":"0","flow":2,"special":""},{"id":13940,"name":"Clean Energy - Long Beach Airport","status":"1","address":"2951 Junipero Ave","city":"Long Beach","state":"CA","zip":"90755","country":"USA","latitude":33.810964,"longitude":-118.163013,"type":"0","fuel":"0","open":"17:00","close":"5:00","monday":"Yes","tuesday":"Yes","wednesday":"Yes","thursday":"Yes","friday":"Yes","saturday":"No","sunday":"","vehicle":0,"payment":"0","flow":2,"special":""},{"id":13950,"name":"Clean Energy - Downtown Long Beach","status":"1","address":"100 Magnolia Ave","city":"Long Beach","state":"CA","zip":"90802","country":"USA","latitude":33.768447,"longitude":-118.197824,"type":"0","fuel":"0","open":"18:00","close":"6:00","monday":"Yes","tuesday":"Yes","wednesday":"Yes","thursday":"Yes","friday":"Yes","saturday":"No","sunday":"","vehicle":0,"payment":"0","flow":2,"special":""},{"id":13965,"name":"Clean Energy - Coachella (Indio)","status":"1","address":"45-601 Dillon Road","city":"Coachella","state":"CA","zip":"92236","country":"USA","latitude":33.718112,"longitude":-116.169747,"type":"0","fuel":"1","open":"19:00","close":"7:00","monday":"Yes","tuesday":"Yes","wednesday":"Yes","thursday":"Yes","friday":"Yes","saturday":"No","sunday":"","vehicle":0,"payment":"0","flow":2,"special":""},{"id":13970,"name":"Clean Energy - Everett - Petrocard","status":"1","address":"3729 Smith Avenue","city":"Everett","state":"WA","zip":"98201","country":"USA","latitude":47.967901,"longitude":-122.196423,"type":"0","fuel":"0","open":"20:00","close":"8:00","monday":"Yes","tuesday":"Yes","wednesday":"Yes","thursday":"Yes","friday":"Yes","saturday":"No","sunday":"","vehicle":0,"payment":"0","flow":2,"special":""},{"id":13980,"name":"Clean Energy - Bellevue - PSE Factoria","status":"1","address":"13240 SE 32nd Street","city":"Bellevue","state":"WA","zip":"98005","country":"USA","latitude":47.582115,"longitude":-122.162218,"type":"0","fuel":"0","open":"21:00","close":"9:00","monday":"Yes","tuesday":"Yes","wednesday":"Yes","thursday":"Yes","friday":"Yes","saturday":"No","sunday":"","vehicle":0,"payment":"0","flow":2,"special":""},{"id":14000,"name":"Clean Energy - ADOA - Downtown Phoenix","status":"1","address":"1501 W. Madison","city":"Phoenix","state":"AZ","zip":"85007","country":"USA","latitude":33.445755,"longitude":-112.091726,"type":"0","fuel":"0","open":"22:00","close":"10:00","monday":"Yes","tuesday":"Yes","wednesday":"Yes","thursday":"Yes","friday":"Yes","saturday":"No","sunday":"","vehicle":0,"payment":"0","flow":2,"special":""},{"id":14020,"name":"Clean Energy -  Phoenix Sky Harbor Airport - East Side station","status":"1","address":"4202 E. Sky Harbor Blvd","city":"Phoenix","state":"AZ","zip":"85034","country":"USA","latitude":33.437284,"longitude":-111.987205,"type":"0","fuel":"0","open":"23:00","close":"11:00","monday":"Yes","tuesday":"Yes","wednesday":"Yes","thursday":"Yes","friday":"Yes","saturday":"No","sunday":"","vehicle":0,"payment":"0","flow":2,"special":""},{"id":14030,"name":"Clean Energy - Tucson International Airport","status":"1","address":"3034 E. Corona Rd","city":"Tucson","state":"AZ","zip":"85756","country":"USA","latitude":32.123063,"longitude":-110.927472,"type":"0","fuel":"1","open":"0:00","close":"12:00","monday":"Yes","tuesday":"Yes","wednesday":"Yes","thursday":"Yes","friday":"Yes","saturday":"No","sunday":"","vehicle":0,"payment":"0","flow":2,"special":""},{"id":14071,"name":"Clean Energy - Lake Havasu City Pilot #211","status":"0","address":"14750B South Highway 95","city":"Lake Havasu City","state":"AZ","zip":"86404","country":"USA","latitude":34.7277,"longitude":-114.3165,"type":"0","fuel":"0","open":"1:00","close":"13:00","monday":"Yes","tuesday":"Yes","wednesday":"Yes","thursday":"Yes","friday":"Yes","saturday":"No","sunday":"","vehicle":0,"payment":"0","flow":2,"special":""},{"id":14080,"name":"Clean Energy - Tucson Winsett","status":"1","address":"1744 East Winsett Street","city":"Tucson","state":"AZ","zip":"85719","country":"USA","latitude":32.214438,"longitude":-110.94581,"type":"0","fuel":"0","open":"2:00","close":"14:00","monday":"Yes","tuesday":"Yes","wednesday":"Yes","thursday":"Yes","friday":"Yes","saturday":"No","sunday":"","vehicle":0,"payment":"0","flow":2,"special":""},{"id":14125,"name":"Clean Energy - Las Vegas UPS - George Crockett Rd","status":"1","address":"206 George Crockett Rd","city":"Las Vegas","state":"NV","zip":"89119","country":"USA","latitude":36.062752,"longitude":-115.162723,"type":"0","fuel":"0","open":"3:00","close":"15:00","monday":"Yes","tuesday":"Yes","wednesday":"Yes","thursday":"Yes","friday":"Yes","saturday":"No","sunday":"","vehicle":0,"payment":"0","flow":2,"special":""},{"id":14134,"name":"Clean Energy - Las Vegas - West Sunset","status":"1","address":"709 West Sunset","city":"Henderson","state":"NV","zip":"89011","country":"USA","latitude":36.063591,"longitude":-115.022969,"type":"0","fuel":"2","open":"4:00","close":"16:00","monday":"Yes","tuesday":"Yes","wednesday":"Yes","thursday":"Yes","friday":"Yes","saturday":"No","sunday":"","vehicle":0,"payment":"0","flow":2,"special":""},{"id":14135,"name":"Clean Energy - Las Vegas - Ronemus Drive","status":"1","address":"2950 Ronemus Drive","city":"Las Vegas","state":"NV","zip":"89128","country":"USA","latitude":36.214646,"longitude":-115.257149,"type":"0","fuel":"0","open":"5:00","close":"17:00","monday":"Yes","tuesday":"Yes","wednesday":"Yes","thursday":"Yes","friday":"Yes","saturday":"No","sunday":"","vehicle":0,"payment":"0","flow":2,"special":""},{"id":14136,"name":"Clean Energy - Las Vegas City Center","status":"1","address":"3683 Industrial Road","city":"Las Vegas","state":"NV","zip":"89109","country":"USA","latitude":36.122907,"longitude":-115.179315,"type":"0","fuel":"0","open":"6:00","close":"18:00","monday":"Yes","tuesday":"Yes","wednesday":"Yes","thursday":"Yes","friday":"Yes","saturday":"No","sunday":"","vehicle":0,"payment":"0","flow":2,"special":""},{"id":14140,"name":"Clean Energy - Las Vegas Losee RTC","status":"1","address":"3333 Losee Road","city":"North Las Vegas","state":"NV","zip":"89030","country":"USA","latitude":36.220403,"longitude":-115.125585,"type":"0","fuel":"0","open":"7:00","close":"19:00","monday":"Yes","tuesday":"Yes","wednesday":"Yes","thursday":"Yes","friday":"Yes","saturday":"No","sunday":"","vehicle":0,"payment":"0","flow":2,"special":""},{"id":14141,"name":"Clean Energy - Las Vegas - McCarran International Airport","status":"1","address":"4990 Paradise Road","city":"Las Vegas","state":"NV","zip":"89119","country":"USA","latitude":36.099349,"longitude":-115.149025,"type":"0","fuel":"1","open":"8:00","close":"20:00","monday":"Yes","tuesday":"Yes","wednesday":"Yes","thursday":"Yes","friday":"Yes","saturday":"No","sunday":"","vehicle":0,"payment":"0","flow":2,"special":""},{"id":14180,"name":"Clean Energy - Phoenix Sky Harbor Airport - Rental Car Center (RRC)","status":"1","address":"2425 E. Buckeye Rd","city":"Phoenix","state":"AZ","zip":"85034","country":"USA","latitude":33.435582,"longitude":-112.032864,"type":"1","fuel":"0","open":"9:00","close":"21:00","monday":"Yes","tuesday":"Yes","wednesday":"Yes","thursday":"Yes","friday":"Yes","saturday":"No","sunday":"","vehicle":0,"payment":"0","flow":2,"special":""},{"id":14240,"name":"Clean Energy - Central Point Pilot #391","status":"0","address":"275 S Peninger Rd","city":"Central Point","state":"OR","zip":"97502","country":"USA","latitude":42.3787,"longitude":-122.899899,"type":"0","fuel":"0","open":"10:00","close":"22:00","monday":"Yes","tuesday":"Yes","wednesday":"Yes","thursday":"Yes","friday":"Yes","saturday":"No","sunday":"","vehicle":0,"payment":"0","flow":2,"special":""},{"id":14241,"name":"Clean Energy - Stanfield Pilot #390","status":"0","address":"2115 Highway 395","city":"Stanfield","state":"OR","zip":"97875","country":"USA","latitude":45.7706,"longitude":-119.2054,"type":"0","fuel":"0","open":"11:00","close":"23:00","monday":"Yes","tuesday":"Yes","wednesday":"Yes","thursday":"Yes","friday":"Yes","saturday":"No","sunday":"","vehicle":0,"payment":"0","flow":2,"special":""},{"id":14301,"name":"Clean Energy - Cleveland Airport - Fast Park","status":"1","address":"18899 Snow Rd","city":"Brook Park","state":"OH","zip":"44142","country":"USA","latitude":41.403666,"longitude":-81.832754,"type":"0","fuel":"1","open":"12:00","close":"0:00","monday":"Yes","tuesday":"Yes","wednesday":"Yes","thursday":"Yes","friday":"Yes","saturday":"No","sunday":"","vehicle":0,"payment":"0","flow":2,"special":""},{"id":14306,"name":"Clean Energy - Seville Pilot #13","status":"1","address":"8924 Lake Road","city":"Seville","state":"OH","zip":"44273","country":"USA","latitude":41.029083,"longitude":-81.908279,"type":"0","fuel":"0","open":"13:00","close":"1:00","monday":"Yes","tuesday":"Yes","wednesday":"Yes","thursday":"Yes","friday":"Yes","saturday":"No","sunday":"","vehicle":0,"payment":"0","flow":2,"special":""},{"id":14307,"name":"Clean Energy - Canton - SARTA","status":"1","address":"1600 Gateway Blvd SE","city":"Canton","state":"OH","zip":"44707","country":"USA","latitude":40.780842,"longitude":-81.368018,"type":"1","fuel":"0","open":"14:00","close":"2:00","monday":"Yes","tuesday":"Yes","wednesday":"Yes","thursday":"Yes","friday":"Yes","saturday":"No","sunday":"","vehicle":0,"payment":"0","flow":2,"special":""},{"id":14308,"name":"Clean Energy - Cleveland - Ace Taxi","status":"1","address":"1798 East 55th Street","city":"Cleveland","state":"OH","zip":"44103","country":"USA","latitude":41.510216,"longitude":-81.652064,"type":"0","fuel":"0","open":"15:00","close":"3:00","monday":"Yes","tuesday":"Yes","wednesday":"Yes","thursday":"Yes","friday":"Yes","saturday":"No","sunday":"","vehicle":0,"payment":"0","flow":2,"special":""},{"id":14309,"name":"Clean Energy - Perrysburg (Lake Township) Flying J #700","status":"0","address":"26415 Warns Road","city":"Lake Township","state":"OH","zip":"43551","country":"USA","latitude":41.535,"longitude":-83.4608,"type":"0","fuel":"1","open":"16:00","close":"4:00","monday":"Yes","tuesday":"Yes","wednesday":"Yes","thursday":"Yes","friday":"Yes","saturday":"No","sunday":"","vehicle":0,"payment":"0","flow":2,"special":""},{"id":14311,"name":"Clean Energy - London Pilot #454","status":"1","address":"1365 SR 42 NE","city":"London","state":"OH","zip":"43140","country":"USA","latitude":39.9467,"longitude":-83.3861,"type":"0","fuel":"0","open":"17:00","close":"5:00","monday":"Yes","tuesday":"Yes","wednesday":"Yes","thursday":"Yes","friday":"Yes","saturday":"No","sunday":"","vehicle":0,"payment":"0","flow":2,"special":""},{"id":14362,"name":"Clean Energy - Kansas City Municipal Ave.","status":"0","address":"5300 Municipal Ave","city":"Kansas City","state":"MO","zip":"64120","country":"USA","latitude":39.135969,"longitude":-94.521863,"type":"1","fuel":"0","open":"18:00","close":"6:00","monday":"Yes","tuesday":"Yes","wednesday":"Yes","thursday":"Yes","friday":"Yes","saturday":"No","sunday":"","vehicle":0,"payment":"0","flow":2,"special":""},{"id":14400,"name":"Clean Energy - Oklahoma City","status":"1","address":"4424 Amelia Earhart Dr","city":"Oklahoma City","state":"OK","zip":"73159","country":"USA","latitude":35.406035,"longitude":-97.600483,"type":"0","fuel":"0","open":"19:00","close":"7:00","monday":"Yes","tuesday":"Yes","wednesday":"Yes","thursday":"Yes","friday":"Yes","saturday":"No","sunday":"","vehicle":0,"payment":"0","flow":2,"special":""},{"id":14414,"name":"Clean Energy - Oklahoma City Flying J #703","status":"0","address":"701 South Morgan Road","city":"Oklahoma City","state":"OK","zip":"73128","country":"USA","latitude":35.45889,"longitude":-97.6903,"type":"0","fuel":"0","open":"20:00","close":"8:00","monday":"Yes","tuesday":"Yes","wednesday":"Yes","thursday":"Yes","friday":"Yes","saturday":"No","sunday":"","vehicle":0,"payment":"0","flow":2,"special":""},{"id":14420,"name":"Clean Energy - Oklahoma State University (OSU)","status":"1","address":"1323 W Lakeview Rd","city":"Stillwater","state":"OK","zip":"74075","country":"USA","latitude":36.144343,"longitude":-97.086949,"type":"1","fuel":"2","open":"21:00","close":"9:00","monday":"Yes","tuesday":"Yes","wednesday":"Yes","thursday":"Yes","friday":"Yes","saturday":"No","sunday":"","vehicle":0,"payment":"0","flow":2,"special":""},{"id":14455,"name":"Clean Energy -  Louis Armstrong New Orleans International Airport","status":"1","address":"1017 Airline Drive","city":"Kenner","state":"LA","zip":"70062","country":"USA","latitude":29.981909,"longitude":-90.25555,"type":"0","fuel":"0","open":"22:00","close":"10:00","monday":"Yes","tuesday":"Yes","wednesday":"Yes","thursday":"Yes","friday":"Yes","saturday":"No","sunday":"","vehicle":0,"payment":"0","flow":2,"special":""},{"id":14456,"name":"Clean Energy - Shreveport (Greenwood) Flying J #665","status":"0","address":"9510 Greenwood Road","city":"Greenwood","state":"LA","zip":"71033","country":"USA","latitude":32.44444,"longitude":-93.9797,"type":"0","fuel":"0","open":"23:00","close":"11:00","monday":"Yes","tuesday":"Yes","wednesday":"Yes","thursday":"Yes","friday":"Yes","saturday":"No","sunday":"","vehicle":0,"payment":"0","flow":2,"special":""},{"id":14500,"name":"Clean Energy - Chicago Grenshaw","status":"1","address":"1121 South Jefferson","city":"Chicago","state":"IL","zip":"60607","country":"USA","latitude":41.868414,"longitude":-87.641917,"type":"0","fuel":"0","open":"0:00","close":"12:00","monday":"Yes","tuesday":"Yes","wednesday":"Yes","thursday":"Yes","friday":"Yes","saturday":"No","sunday":"","vehicle":0,"payment":"0","flow":2,"special":""},{"id":14501,"name":"Clean Energy - Chicago Clybourn","status":"1","address":"3164 North Clybourn Ave","city":"Chicago","state":"IL","zip":"60618","country":"USA","latitude":41.938867,"longitude":-87.687673,"type":"0","fuel":"0","open":"1:00","close":"13:00","monday":"Yes","tuesday":"Yes","wednesday":"Yes","thursday":"Yes","friday":"Yes","saturday":"No","sunday":"","vehicle":0,"payment":"0","flow":2,"special":""},{"id":14509,"name":"Clean Energy - Peoria","status":"1","address":"1113 N Swords Avenue","city":"Peoria","state":"IL","zip":"61604","country":"USA","latitude":40.701393,"longitude":-89.642563,"type":"1","fuel":"1","open":"2:00","close":"14:00","monday":"Yes","tuesday":"Yes","wednesday":"Yes","thursday":"Yes","friday":"Yes","saturday":"No","sunday":"","vehicle":0,"payment":"0","flow":2,"special":""},{"id":14510,"name":"Clean Energy - Chicago GTI","status":"1","address":"1700 S. Mount Prospect","city":"Des Plaines","state":"IL","zip":"60018","country":"USA","latitude":42.017832,"longitude":-87.921523,"type":"0","fuel":"0","open":"3:00","close":"15:00","monday":"Yes","tuesday":"Yes","wednesday":"Yes","thursday":"Yes","friday":"Yes","saturday":"No","sunday":"","vehicle":0,"payment":"0","flow":2,"special":""},{"id":14512,"name":"Clean Energy - La Salle Flying J #644","status":"0","address":"343 Civic Road","city":"LaSalle","state":"IL","zip":"61301","country":"USA","latitude":41.369421,"longitude":-89.098514,"type":"0","fuel":"0","open":"4:00","close":"16:00","monday":"Yes","tuesday":"Yes","wednesday":"Yes","thursday":"Yes","friday":"Yes","saturday":"No","sunday":"","vehicle":0,"payment":"0","flow":2,"special":""},{"id":14602,"name":"Clean Energy - Colby Pilot #920","status":"0","address":"110 East Willow Street","city":"Colby","state":"KS","zip":"67701","country":"USA","latitude":39.365349,"longitude":-101.045814,"type":"0","fuel":"0","open":"5:00","close":"17:00","monday":"Yes","tuesday":"Yes","wednesday":"Yes","thursday":"Yes","friday":"Yes","saturday":"No","sunday":"","vehicle":0,"payment":"0","flow":2,"special":""},{"id":14603,"name":"Clean Energy - Salina Flying J #659","status":"0","address":"2250 North Ohio Street","city":"Salina","state":"KS","zip":"67401","country":"USA","latitude":38.878332,"longitude":-97.594136,"type":"0","fuel":"0","open":"6:00","close":"18:00","monday":"Yes","tuesday":"Yes","wednesday":"Yes","thursday":"Yes","friday":"Yes","saturday":"No","sunday":"","vehicle":0,"payment":"0","flow":2,"special":""},{"id":14650,"name":"Clean Energy - Renewable Dairy Fuels - Sellersburg","status":"1","address":"7507 Highway 31 East","city":"Sellersburg","state":"IN","zip":"47172","country":"USA","latitude":38.373545,"longitude":-85.747207,"type":"0","fuel":"2","open":"7:00","close":"19:00","monday":"Yes","tuesday":"Yes","wednesday":"Yes","thursday":"Yes","friday":"Yes","saturday":"No","sunday":"","vehicle":0,"payment":"0","flow":2,"special":""},{"id":14651,"name":"Clean Energy - Renewable Dairy Fuels - Fair Oaks","status":"1","address":"856 North 600 East","city":"Fair Oaks","state":"IN","zip":"47943","country":"USA","latitude":41.009912,"longitude":-87.276091,"type":"0","fuel":"0","open":"8:00","close":"20:00","monday":"Yes","tuesday":"Yes","wednesday":"Yes","thursday":"Yes","friday":"Yes","saturday":"No","sunday":"","vehicle":0,"payment":"0","flow":2,"special":""},{"id":14652,"name":"Clean Energy - Indianapolis Flying J #649","status":"0","address":"1722 W Thompson Rd","city":"Indianapolis","state":"IN","zip":"46217","country":"USA","latitude":39.692933,"longitude":-86.191052,"type":"0","fuel":"0","open":"9:00","close":"21:00","monday":"Yes","tuesday":"Yes","wednesday":"Yes","thursday":"Yes","friday":"Yes","saturday":"No","sunday":"","vehicle":0,"payment":"0","flow":2,"special":""},{"id":14653,"name":"Clean Energy - Fremont Pilot #29","status":"0","address":"6900 Old US 27","city":"Fremont","state":"IN","zip":"46737","country":"USA","latitude":41.7402,"longitude":-85.0007,"type":"0","fuel":"1","open":"10:00","close":"22:00","monday":"Yes","tuesday":"Yes","wednesday":"Yes","thursday":"Yes","friday":"Yes","saturday":"No","sunday":"","vehicle":0,"payment":"0","flow":2,"special":""},{"id":14700,"name":"Clean Energy - West Memphis Flying J #607","status":"0","address":"3400 Service Loop Road","city":"West Memphis","state":"AR","zip":"72301","country":"USA","latitude":35.15389,"longitude":-90.1442,"type":"0","fuel":"0","open":"11:00","close":"23:00","monday":"Yes","tuesday":"Yes","wednesday":"Yes","thursday":"Yes","friday":"Yes","saturday":"No","sunday":"","vehicle":0,"payment":"0","flow":2,"special":""},{"id":14800,"name":"Clean Energy - Pearl (Jackson) Flying J #678","status":"0","address":"685 U.S. 80","city":"Pearl","state":"MS","zip":"39208","country":"USA","latitude":32.276881,"longitude":-90.159868,"type":"0","fuel":"0","open":"12:00","close":"0:00","monday":"Yes","tuesday":"Yes","wednesday":"Yes","thursday":"Yes","friday":"Yes","saturday":"No","sunday":"","vehicle":0,"payment":"0","flow":2,"special":""},{"id":15281,"name":"Clean Energy - Cheyenne Flying J #759","status":"0","address":"2300 Etchepare Drive","city":"Cheyenne","state":"WY","zip":"82007","country":"USA","latitude":41.098119,"longitude":-104.853805,"type":"0","fuel":"0","open":"13:00","close":"1:00","monday":"Yes","tuesday":"Yes","wednesday":"Yes","thursday":"Yes","friday":"Yes","saturday":"No","sunday":"","vehicle":0,"payment":"0","flow":2,"special":""},{"id":15282,"name":"Clean Energy - Rawlins Flying J #736","status":"0","address":"I-80  Johnson Road","city":"Rawlins","state":"WY","zip":"82301","country":"USA","latitude":41.77873,"longitude":-107.308986,"type":"0","fuel":"2","open":"14:00","close":"2:00","monday":"Yes","tuesday":"Yes","wednesday":"Yes","thursday":"Yes","friday":"Yes","saturday":"No","sunday":"","vehicle":0,"payment":"0","flow":2,"special":""},{"id":15310,"name":"Clean Energy - Arvada","status":"1","address":"5901 Sheridan Blvd","city":"Arvada","state":"CO","zip":"80003","country":"USA","latitude":39.80324,"longitude":-105.053568,"type":"0","fuel":"0","open":"15:00","close":"3:00","monday":"Yes","tuesday":"Yes","wednesday":"Yes","thursday":"Yes","friday":"Yes","saturday":"No","sunday":"","vehicle":0,"payment":"0","flow":2,"special":""},{"id":15340,"name":"Clean Energy - Gateway SC","status":"1","address":"3751 Fraser St","city":"Aurora","state":"CO","zip":"80011","country":"USA","latitude":39.767758,"longitude":-104.812895,"type":"0","fuel":"0","open":"16:00","close":"4:00","monday":"Yes","tuesday":"Yes","wednesday":"Yes","thursday":"Yes","friday":"Yes","saturday":"No","sunday":"","vehicle":0,"payment":"0","flow":2,"special":""},{"id":15341,"name":"Clean Energy - Aurora (Denver) Flying J #619","status":"0","address":"16751 East 32nd Ave","city":"Aurora","state":"CO","zip":"80011","country":"USA","latitude":39.762873,"longitude":-104.793218,"type":"0","fuel":"0","open":"17:00","close":"5:00","monday":"Yes","tuesday":"Yes","wednesday":"Yes","thursday":"Yes","friday":"Yes","saturday":"No","sunday":"","vehicle":0,"payment":"0","flow":2,"special":""},{"id":15440,"name":"Clean Energy - DIA Rent A Car NE","status":"1","address":"22800 E. 78th Avenue","city":"Denver","state":"CO","zip":"80249","country":"USA","latitude":39.837566,"longitude":-104.709219,"type":"0","fuel":"1","open":"18:00","close":"6:00","monday":"Yes","tuesday":"Yes","wednesday":"Yes","thursday":"Yes","friday":"Yes","saturday":"No","sunday":"","vehicle":0,"payment":"0","flow":2,"special":""},{"id":15710,"name":"Clean Energy - Boulder - Amoco","status":"1","address":"2990 Baseline","city":"Boulder","state":"CO","zip":"80303","country":"USA","latitude":39.999725,"longitude":-105.253456,"type":"0","fuel":"0","open":"19:00","close":"7:00","monday":"Yes","tuesday":"Yes","wednesday":"Yes","thursday":"Yes","friday":"Yes","saturday":"No","sunday":"","vehicle":0,"payment":"0","flow":2,"special":""},{"id":15750,"name":"Clean Energy - Denver - 3rd & Lipan","status":"1","address":"1123 W. 3rd Ave","city":"Denver","state":"CO","zip":"80223","country":"USA","latitude":39.721118,"longitude":-105.001671,"type":"0","fuel":"0","open":"20:00","close":"8:00","monday":"Yes","tuesday":"Yes","wednesday":"Yes","thursday":"Yes","friday":"Yes","saturday":"No","sunday":"","vehicle":0,"payment":"0","flow":2,"special":""},{"id":15940,"name":"Clean Energy - 10th & Broadway - Valero #4086","status":"1","address":"1001 Broadway","city":"Denver","state":"CO","zip":"80203","country":"USA","latitude":39.732303,"longitude":-104.987795,"type":"0","fuel":"2","open":"21:00","close":"9:00","monday":"Yes","tuesday":"Yes","wednesday":"Yes","thursday":"Yes","friday":"Yes","saturday":"No","sunday":"","vehicle":0,"payment":"0","flow":2,"special":""},{"id":15960,"name":"Clean Energy - Colorado Boulevard - Valero #4079","status":"1","address":"2210 S. Colorado Blvd","city":"Denver","state":"CO","zip":"80222","country":"USA","latitude":39.676454,"longitude":-104.940411,"type":"0","fuel":"0","open":"22:00","close":"10:00","monday":"Yes","tuesday":"Yes","wednesday":"Yes","thursday":"Yes","friday":"Yes","saturday":"No","sunday":"","vehicle":0,"payment":"0","flow":2,"special":""},{"id":16200,"name":"Clean Energy - Dallas - DISD","status":"1","address":"3701 S. Lamar (at 45)","city":"Dallas","state":"TX","zip":"75215","country":"USA","latitude":32.753988,"longitude":-96.773109,"type":"0","fuel":"0","open":"23:00","close":"11:00","monday":"Yes","tuesday":"Yes","wednesday":"Yes","thursday":"Yes","friday":"Yes","saturday":"No","sunday":"","vehicle":0,"payment":"0","flow":2,"special":""},{"id":16300,"name":"Clean Energy - Irving","status":"1","address":"128 North Briery Rd. at Rock Island Rd","city":"Irving","state":"TX","zip":"75061","country":"USA","latitude":32.817849,"longitude":-96.989249,"type":"0","fuel":"0","open":"0:00","close":"12:00","monday":"Yes","tuesday":"Yes","wednesday":"Yes","thursday":"Yes","friday":"Yes","saturday":"No","sunday":"","vehicle":0,"payment":"0","flow":2,"special":""},{"id":16310,"name":"Clean Energy - Downtown Dallas","status":"1","address":"100 N. Riverfront Blvd","city":"Dallas","state":"TX","zip":"75207","country":"USA","latitude":32.777563,"longitude":-96.812979,"type":"0","fuel":"0","open":"1:00","close":"13:00","monday":"Yes","tuesday":"Yes","wednesday":"Yes","thursday":"Yes","friday":"Yes","saturday":"No","sunday":"","vehicle":0,"payment":"0","flow":2,"special":""},{"id":16311,"name":"Clean Energy - Dallas Fuel City","status":"1","address":"801 South Riverfront","city":"Dallas","state":"TX","zip":"75207","country":"USA","latitude":32.767054,"longitude":-96.806371,"type":"0","fuel":"0","open":"2:00","close":"14:00","monday":"Yes","tuesday":"Yes","wednesday":"Yes","thursday":"Yes","friday":"Yes","saturday":"No","sunday":"","vehicle":0,"payment":"0","flow":2,"special":""},{"id":16312,"name":"Clean Energy - Dallas - Dillon Transportation","status":"1","address":"4600 Irving Blvd","city":"Dallas","state":"TX","zip":"75247","country":"USA","latitude":32.808166,"longitude":-96.897832,"type":"0","fuel":"0","open":"3:00","close":"15:00","monday":"Yes","tuesday":"Yes","wednesday":"Yes","thursday":"Yes","friday":"Yes","saturday":"No","sunday":"","vehicle":0,"payment":"0","flow":2,"special":""},{"id":16313,"name":"Clean Energy - Sulphur Springs Pilot #157","status":"0","address":"1200 South Hillcrest Dr","city":"Sulphur Springs","state":"TX","zip":"75482","country":"USA","latitude":33.116241,"longitude":-95.634071,"type":"0","fuel":"0","open":"4:00","close":"16:00","monday":"Yes","tuesday":"Yes","wednesday":"Yes","thursday":"Yes","friday":"Yes","saturday":"No","sunday":"","vehicle":0,"payment":"0","flow":2,"special":""},{"id":16360,"name":"Clean Energy - Garland - GISD","status":"1","address":"3526 Security St","city":"Garland","state":"TX","zip":"75042","country":"USA","latitude":32.897143,"longitude":-96.68442,"type":"0","fuel":"1","open":"5:00","close":"17:00","monday":"Yes","tuesday":"Yes","wednesday":"Yes","thursday":"Yes","friday":"Yes","saturday":"No","sunday":"","vehicle":0,"payment":"0","flow":2,"special":""},{"id":16400,"name":"Clean Energy - Dallas - Cockrell Hill","status":"1","address":"2005 S. Cockrell Hill Rd","city":"Dallas","state":"TX","zip":"75211","country":"USA","latitude":32.723485,"longitude":-96.891853,"type":"0","fuel":"0","open":"6:00","close":"18:00","monday":"Yes","tuesday":"Yes","wednesday":"Yes","thursday":"Yes","friday":"Yes","saturday":"No","sunday":"","vehicle":0,"payment":"0","flow":2,"special":""},{"id":16402,"name":"Clean Energy - Hope Hull (Tyson) Flying J #604","status":"0","address":"900 Tyson Road","city":"Hope Hull","state":"AL","zip":"36043","country":"USA","latitude":32.193847,"longitude":-86.420881,"type":"0","fuel":"0","open":"7:00","close":"19:00","monday":"Yes","tuesday":"Yes","wednesday":"Yes","thursday":"Yes","friday":"Yes","saturday":"No","sunday":"","vehicle":0,"payment":"0","flow":2,"special":""},{"id":16411,"name":"Clean Energy - Albuquerque Flying J #689","status":"0","address":"9911 Avalon Road NW","city":"Albuquerque","state":"NM","zip":"87121","country":"USA","latitude":35.080049,"longitude":-106.74631,"type":"0","fuel":"0","open":"8:00","close":"20:00","monday":"Yes","tuesday":"Yes","wednesday":"Yes","thursday":"Yes","friday":"Yes","saturday":"No","sunday":"","vehicle":0,"payment":"0","flow":2,"special":""},{"id":16413,"name":"Clean Energy - Lordsburg Flying J #690","status":"0","address":"1050 E Motel Dr","city":"Lordsburg","state":"NM","zip":"88045","country":"USA","latitude":32.342384,"longitude":-108.681539,"type":"0","fuel":"0","open":"9:00","close":"21:00","monday":"Yes","tuesday":"Yes","wednesday":"Yes","thursday":"Yes","friday":"Yes","saturday":"No","sunday":"","vehicle":0,"payment":"0","flow":2,"special":""},{"id":16420,"name":"Clean Energy - Santa Fe Trails","status":"1","address":"2931 Rufina St","city":"Santa Fe","state":"NM","zip":"87507","country":"USA","latitude":35.65694,"longitude":-105.995943,"type":"1","fuel":"0","open":"10:00","close":"22:00","monday":"Yes","tuesday":"Yes","wednesday":"Yes","thursday":"Yes","friday":"Yes","saturday":"No","sunday":"","vehicle":0,"payment":"0","flow":2,"special":""},{"id":16500,"name":"Clean Energy - Albuquerque Airport - Sunport","status":"1","address":"Airport Srv Rd SE","city":"Albuquerque","state":"NM","zip":"87106","country":"USA","latitude":35.046188,"longitude":-106.622036,"type":"0","fuel":"0","open":"11:00","close":"23:00","monday":"Yes","tuesday":"Yes","wednesday":"Yes","thursday":"Yes","friday":"Yes","saturday":"No","sunday":"","vehicle":0,"payment":"0","flow":2,"special":""},{"id":16560,"name":"Clean Energy - Fort Worth","status":"1","address":"4600 Mark IV Pkwy. ","city":"Fort Worth","state":"TX","zip":"76161","country":"USA","latitude":32.824809,"longitude":-97.320772,"type":"0","fuel":"1","open":"12:00","close":"0:00","monday":"Yes","tuesday":"Yes","wednesday":"Yes","thursday":"Yes","friday":"Yes","saturday":"No","sunday":"","vehicle":0,"payment":"0","flow":2,"special":""},{"id":16642,"name":"Clean Energy - Arlington - Valero Cowboys Stadium","status":"1","address":"1731 East Division Street","city":"Arlington","state":"TX","zip":"76011","country":"USA","latitude":32.741906,"longitude":-97.084162,"type":"0","fuel":"0","open":"13:00","close":"1:00","monday":"Yes","tuesday":"Yes","wednesday":"Yes","thursday":"Yes","friday":"Yes","saturday":"No","sunday":"","vehicle":0,"payment":"0","flow":2,"special":""},{"id":16644,"name":"Clean Energy - Weatherford Pilot #206","status":"0","address":"1201 I-20 West","city":"Weatherford","state":"TX","zip":"76087","country":"USA","latitude":32.727262,"longitude":-97.824473,"type":"0","fuel":"0","open":"14:00","close":"2:00","monday":"Yes","tuesday":"Yes","wednesday":"Yes","thursday":"Yes","friday":"Yes","saturday":"No","sunday":"","vehicle":0,"payment":"0","flow":2,"special":""},{"id":16646,"name":"Clean Energy - Midland Clean Energy","status":"0","address":"4070 S FM 1788","city":"Midland","state":"TX","zip":"79706","country":"USA","latitude":31.914103,"longitude":-102.216368,"type":"0","fuel":"0","open":"15:00","close":"3:00","monday":"Yes","tuesday":"Yes","wednesday":"Yes","thursday":"Yes","friday":"Yes","saturday":"No","sunday":"","vehicle":0,"payment":"0","flow":2,"special":""},{"id":16647,"name":"Clean Energy - Amarillo Pilot #436","status":"0","address":"715 South Lakeside Drive","city":"Amarillo","state":"TX","zip":"79118","country":"USA","latitude":35.1955,"longitude":-101.7426,"type":"0","fuel":"0","open":"16:00","close":"4:00","monday":"Yes","tuesday":"Yes","wednesday":"Yes","thursday":"Yes","friday":"Yes","saturday":"No","sunday":"","vehicle":0,"payment":"0","flow":2,"special":""},{"id":16648,"name":"Clean Energy - El Paso Flying J #728","status":"0","address":"1301 Horizon Blvd","city":"El Paso","state":"TX","zip":"79928","country":"USA","latitude":31.662317,"longitude":-106.23872,"type":"0","fuel":"0","open":"17:00","close":"5:00","monday":"Yes","tuesday":"Yes","wednesday":"Yes","thursday":"Yes","friday":"Yes","saturday":"No","sunday":"","vehicle":0,"payment":"0","flow":2,"special":""},{"id":16649,"name":"Clean Energy - Laredo Flying J #730","status":"0","address":"1011 Beltway Parkway","city":"Laredo","state":"TX","zip":"78045","country":"USA","latitude":27.68446,"longitude":-99.4622,"type":"0","fuel":"0","open":"18:00","close":"6:00","monday":"Yes","tuesday":"Yes","wednesday":"Yes","thursday":"Yes","friday":"Yes","saturday":"No","sunday":"","vehicle":0,"payment":"0","flow":2,"special":""},{"id":16650,"name":"Clean Energy - DFW Airport","status":"1","address":"N Support Rd & Carbon Rd","city":"Irving","state":"TX","zip":"75038","country":"USA","latitude":32.877538,"longitude":-97.036747,"type":"0","fuel":"0","open":"19:00","close":"7:00","monday":"Yes","tuesday":"Yes","wednesday":"Yes","thursday":"Yes","friday":"Yes","saturday":"No","sunday":"","vehicle":0,"payment":"0","flow":2,"special":""},{"id":16660,"name":"Clean Energy - Dallas - Central Service Center","status":"1","address":"1620 Baylor Street","city":"Dallas","state":"TX","zip":"75226","country":"USA","latitude":32.781052,"longitude":-96.77537,"type":"0","fuel":"0","open":"20:00","close":"8:00","monday":"Yes","tuesday":"Yes","wednesday":"Yes","thursday":"Yes","friday":"Yes","saturday":"No","sunday":"","vehicle":0,"payment":"0","flow":2,"special":""},{"id":16668,"name":"Clean Energy - Waco Flying J #739","status":"0","address":"2409 So New Road","city":"Waco","state":"TX","zip":"76711","country":"USA","latitude":31.5071,"longitude":-97.145439,"type":"0","fuel":"1","open":"21:00","close":"9:00","monday":"Yes","tuesday":"Yes","wednesday":"Yes","thursday":"Yes","friday":"Yes","saturday":"No","sunday":"","vehicle":0,"payment":"0","flow":2,"special":""},{"id":16669,"name":"Clean Energy - Brookshire Flying J #740","status":"0","address":"204 South Waller Ave","city":"Brookshire","state":"TX","zip":"77423","country":"USA","latitude":29.78028,"longitude":-95.9522,"type":"0","fuel":"0","open":"22:00","close":"10:00","monday":"Yes","tuesday":"Yes","wednesday":"Yes","thursday":"Yes","friday":"Yes","saturday":"No","sunday":"","vehicle":0,"payment":"0","flow":2,"special":""},{"id":16670,"name":"Clean Energy - DFW - RCC","status":"1","address":"S Rental Car Dr & S 24th Ave","city":"Dallas","state":"TX","zip":"75261","country":"USA","latitude":32.853616,"longitude":-97.03504,"type":"0","fuel":"0","open":"23:00","close":"11:00","monday":"Yes","tuesday":"Yes","wednesday":"Yes","thursday":"Yes","friday":"Yes","saturday":"No","sunday":"","vehicle":0,"payment":"0","flow":2,"special":""},{"id":16722,"name":"Clean Energy - Daugherty Laredo","status":"1","address":"5710 Daugherty","city":"Laredo","state":"TX","zip":"78041","country":"USA","latitude":27.548673,"longitude":-99.472007,"type":"0","fuel":"0","open":"0:00","close":"12:00","monday":"Yes","tuesday":"Yes","wednesday":"Yes","thursday":"Yes","friday":"Yes","saturday":"No","sunday":"","vehicle":0,"payment":"0","flow":2,"special":""},{"id":16739,"name":"Clean Energy - San Antonio Flying J #737","status":"1","address":"1815 N Foster Road","city":"San Antonio","state":"TX","zip":"78244","country":"USA","latitude":29.445844,"longitude":-98.360768,"type":"0","fuel":"0","open":"1:00","close":"13:00","monday":"Yes","tuesday":"Yes","wednesday":"Yes","thursday":"Yes","friday":"Yes","saturday":"No","sunday":"","vehicle":0,"payment":"0","flow":2,"special":""},{"id":16810,"name":"Clean Energy - Dallas - Love Field Airport","status":"1","address":"8000 Denton Dr","city":"Dallas","state":"TX","zip":"75235","country":"USA","latitude":32.839533,"longitude":-96.853162,"type":"0","fuel":"0","open":"2:00","close":"14:00","monday":"Yes","tuesday":"Yes","wednesday":"Yes","thursday":"Yes","friday":"Yes","saturday":"No","sunday":"","vehicle":0,"payment":"0","flow":2,"special":""},{"id":16830,"name":"Clean Energy - Houston - TXDOT","status":"1","address":"7779 Washington Ave","city":"Houston","state":"TX","zip":"77007","country":"USA","latitude":29.780159,"longitude":-95.434432,"type":"0","fuel":"0","open":"3:00","close":"15:00","monday":"Yes","tuesday":"Yes","wednesday":"Yes","thursday":"Yes","friday":"Yes","saturday":"No","sunday":"","vehicle":0,"payment":"0","flow":2,"special":""},{"id":16840,"name":"Clean Energy - Houston - O'Rourke","status":"1","address":"223 McCarthy Street","city":"Houston","state":"TX","zip":"77029","country":"USA","latitude":29.786432,"longitude":-95.280076,"type":"0","fuel":"0","open":"4:00","close":"16:00","monday":"Yes","tuesday":"Yes","wednesday":"Yes","thursday":"Yes","friday":"Yes","saturday":"No","sunday":"","vehicle":0,"payment":"0","flow":2,"special":""},{"id":16842,"name":"Clean Energy - Fort Worth Pilot #434","status":"0","address":"2400 Alliance Gateway","city":"Fort Worth","state":"TX","zip":"76177","country":"USA","latitude":32.9587,"longitude":-97.309199,"type":"0","fuel":"1","open":"5:00","close":"17:00","monday":"Yes","tuesday":"Yes","wednesday":"Yes","thursday":"Yes","friday":"Yes","saturday":"No","sunday":"","vehicle":0,"payment":"0","flow":2,"special":""},{"id":16865,"name":"Clean Energy - Baytown Flying J #725","status":"1","address":"1876 East Fwy","city":"Baytown","state":"TX","zip":"77521","country":"USA","latitude":29.798217,"longitude":-95.032629,"type":"0","fuel":"0","open":"6:00","close":"18:00","monday":"Yes","tuesday":"Yes","wednesday":"Yes","thursday":"Yes","friday":"Yes","saturday":"No","sunday":"","vehicle":0,"payment":"0","flow":2,"special":""},{"id":16870,"name":"Clean Energy - Parking Spot Houston (IAH) - International Plaza Drive","status":"1","address":"15800 International Plaza Dr","city":"Houston","state":"TX","zip":"77032","country":"USA","latitude":29.94704,"longitude":-95.326015,"type":"0","fuel":"0","open":"7:00","close":"19:00","monday":"Yes","tuesday":"Yes","wednesday":"Yes","thursday":"Yes","friday":"Yes","saturday":"No","sunday":"","vehicle":0,"payment":"0","flow":2,"special":""},{"id":16880,"name":"Clean Energy - DFW - Parking Spot DFW North","status":"1","address":"7640 Esters Boulevard","city":"Irving","state":"TX","zip":"75063","country":"USA","latitude":32.910912,"longitude":-97.007649,"type":"0","fuel":"0","open":"8:00","close":"20:00","monday":"Yes","tuesday":"Yes","wednesday":"Yes","thursday":"Yes","friday":"Yes","saturday":"No","sunday":"","vehicle":0,"payment":"0","flow":2,"special":""},{"id":16891,"name":"Clean Energy - Austin - Airport (AUS)","status":"1","address":"3100 Spirit of Texas Drive","city":"Austin","state":"TX","zip":"78719","country":"USA","latitude":30.208866,"longitude":-97.671737,"type":"0","fuel":"0","open":"9:00","close":"21:00","monday":"Yes","tuesday":"Yes","wednesday":"Yes","thursday":"Yes","friday":"Yes","saturday":"No","sunday":"","vehicle":0,"payment":"0","flow":2,"special":""},{"id":16894,"name":"Clean Energy - Fort Worth South","status":"1","address":"1075 Everman Parkway","city":"Fort Worth","state":"TX","zip":"76140","country":"USA","latitude":32.628072,"longitude":-97.316455,"type":"0","fuel":"0","open":"10:00","close":"22:00","monday":"Yes","tuesday":"Yes","wednesday":"Yes","thursday":"Yes","friday":"Yes","saturday":"No","sunday":"","vehicle":0,"payment":"0","flow":2,"special":""},{"id":16901,"name":"Clean Energy - Birmingham Flying J #602","status":"0","address":"224 Daniel Payne Drive","city":"Birmingham","state":"AL","zip":"35207","country":"USA","latitude":33.562502,"longitude":-86.831128,"type":"0","fuel":"1","open":"11:00","close":"23:00","monday":"Yes","tuesday":"Yes","wednesday":"Yes","thursday":"Yes","friday":"Yes","saturday":"No","sunday":"","vehicle":0,"payment":"0","flow":2,"special":""},{"id":16903,"name":"Clean Energy - Mobile Pilot #302","status":"0","address":"6955 Theodore Dawes Road","city":"Theodore","state":"AL","zip":"36582","country":"USA","latitude":30.56014,"longitude":-88.205334,"type":"0","fuel":"0","open":"12:00","close":"0:00","monday":"Yes","tuesday":"Yes","wednesday":"Yes","thursday":"Yes","friday":"Yes","saturday":"No","sunday":"","vehicle":0,"payment":"0","flow":2,"special":""},{"id":17000,"name":"Clean Energy - LaGuardia Airport","status":"0","address":"37 Laguardia Airport","city":"Flushing","state":"NY","zip":"11371","country":"USA","latitude":40.774651,"longitude":-73.872344,"type":"0","fuel":"0","open":"13:00","close":"1:00","monday":"Yes","tuesday":"Yes","wednesday":"Yes","thursday":"Yes","friday":"Yes","saturday":"No","sunday":"","vehicle":0,"payment":"0","flow":2,"special":""},{"id":17001,"name":"Clean Energy - JFK Airport - National Grid","status":"1","address":"Tow Pound JFK Airport","city":"Jamaica","state":"NY","zip":"11430","country":"USA","latitude":40.646363,"longitude":-73.798293,"type":"0","fuel":"0","open":"14:00","close":"2:00","monday":"Yes","tuesday":"Yes","wednesday":"Yes","thursday":"Yes","friday":"Yes","saturday":"No","sunday":"","vehicle":0,"payment":"1","flow":2,"special":""},{"id":17010,"name":"Clean Energy - Hauppauge","status":"1","address":"Constitution Blvd & Hauppauge Spur","city":"Hauppauge","state":"NY","zip":"11788","country":"USA","latitude":40.818317,"longitude":-73.221541,"type":"0","fuel":"0","open":"15:00","close":"3:00","monday":"Yes","tuesday":"Yes","wednesday":"Yes","thursday":"Yes","friday":"Yes","saturday":"No","sunday":"","vehicle":0,"payment":"0","flow":2,"special":""},{"id":17020,"name":"Clean Energy - Poughkeepsie","status":"1","address":"4 Burnett Blvd","city":"Poughkeepsie","state":"NY","zip":"12603","country":"USA","latitude":41.696472,"longitude":-73.888536,"type":"0","fuel":"0","open":"16:00","close":"4:00","monday":"Yes","tuesday":"Yes","wednesday":"Yes","thursday":"Yes","friday":"Yes","saturday":"No","sunday":"","vehicle":0,"payment":"0","flow":2,"special":""},{"id":17030,"name":"Clean Energy - New Paltz","status":"1","address":"Main Street and Interstate 87","city":"New Paltz","state":"NY","zip":"12561","country":"USA","latitude":41.740056,"longitude":-74.063056,"type":"0","fuel":"0","open":"17:00","close":"5:00","monday":"Yes","tuesday":"Yes","wednesday":"Yes","thursday":"Yes","friday":"Yes","saturday":"No","sunday":"","vehicle":0,"payment":"0","flow":2,"special":""},{"id":17040,"name":"Clean Energy - Albany","status":"1","address":"McCarty Ave and Hoffman Ave.","city":"Albany","state":"NY","zip":"12209","country":"USA","latitude":42.634158,"longitude":-73.77539,"type":"0","fuel":"2","open":"18:00","close":"6:00","monday":"Yes","tuesday":"Yes","wednesday":"Yes","thursday":"Yes","friday":"Yes","saturday":"No","sunday":"","vehicle":0,"payment":"0","flow":2,"special":""},{"id":17041,"name":"Clean Energy - Albany National Grid","status":"1","address":"1125 Broadway","city":"Albany","state":"NY","zip":"12204","country":"USA","latitude":42.669213,"longitude":-73.73991,"type":"0","fuel":"0","open":"19:00","close":"7:00","monday":"Yes","tuesday":"Yes","wednesday":"Yes","thursday":"Yes","friday":"Yes","saturday":"No","sunday":"","vehicle":0,"payment":"0","flow":2,"special":""},{"id":17050,"name":"Clean Energy - Utica","status":"1","address":"87 Harbor","city":"Utica","state":"NY","zip":"13502","country":"USA","latitude":43.112459,"longitude":-75.218443,"type":"0","fuel":"0","open":"20:00","close":"8:00","monday":"Yes","tuesday":"Yes","wednesday":"Yes","thursday":"Yes","friday":"Yes","saturday":"No","sunday":"","vehicle":0,"payment":"0","flow":2,"special":""},{"id":17060,"name":"Clean Energy - North Syracuse","status":"1","address":"5450 South Bay Road","city":"Syracuse","state":"NY","zip":"13212","country":"USA","latitude":43.121335,"longitude":-76.141519,"type":"0","fuel":"0","open":"21:00","close":"9:00","monday":"Yes","tuesday":"Yes","wednesday":"Yes","thursday":"Yes","friday":"Yes","saturday":"No","sunday":"","vehicle":0,"payment":"0","flow":2,"special":""},{"id":17061,"name":"Clean Energy - Syracuse National Grid","status":"1","address":"7496 Round Pond Rd","city":"North Syracuse","state":"NY","zip":"13212","country":"USA","latitude":43.13411,"longitude":-76.087054,"type":"0","fuel":"0","open":"22:00","close":"10:00","monday":"Yes","tuesday":"Yes","wednesday":"Yes","thursday":"Yes","friday":"Yes","saturday":"No","sunday":"","vehicle":0,"payment":"0","flow":2,"special":""},{"id":17070,"name":"Clean Energy - Binghampton","status":"1","address":"112 Barlow Road","city":"Binghampton","state":"NY","zip":"13904","country":"USA","latitude":42.102578,"longitude":-75.837789,"type":"0","fuel":"0","open":"23:00","close":"11:00","monday":"Yes","tuesday":"Yes","wednesday":"Yes","thursday":"Yes","friday":"Yes","saturday":"No","sunday":"","vehicle":0,"payment":"0","flow":2,"special":""},{"id":17080,"name":"Clean Energy - Rush","status":"1","address":"1235 Rush-Scottsville Road","city":"Rush","state":"NY","zip":"14543","country":"USA","latitude":43.002963,"longitude":-77.671623,"type":"0","fuel":"0","open":"0:00","close":"12:00","monday":"Yes","tuesday":"Yes","wednesday":"Yes","thursday":"Yes","friday":"Yes","saturday":"No","sunday":"","vehicle":0,"payment":"0","flow":2,"special":""},{"id":17090,"name":"Clean Energy - Syosset","status":"1","address":"300 Robbins Lane","city":"Syosset","state":"NY","zip":"11753","country":"USA","latitude":40.79627573,"longitude":-73.51326987,"type":"0","fuel":"1","open":"1:00","close":"13:00","monday":"Yes","tuesday":"Yes","wednesday":"Yes","thursday":"Yes","friday":"Yes","saturday":"No","sunday":"","vehicle":0,"payment":"0","flow":2,"special":""},{"id":17100,"name":"Clean Energy - Rotterdam","status":"1","address":"3008 Chrisler Ave","city":"Rotterdam","state":"NY","zip":"12303","country":"USA","latitude":42.78225,"longitude":-73.927483,"type":"0","fuel":"0","open":"2:00","close":"14:00","monday":"Yes","tuesday":"Yes","wednesday":"Yes","thursday":"Yes","friday":"Yes","saturday":"No","sunday":"","vehicle":0,"payment":"0","flow":2,"special":""},{"id":17101,"name":"Clean Energy - Staten Island - National Grid","status":"1","address":"2949 Western Ave","city":"Staten Island","state":"NY","zip":"10314","country":"USA","latitude":40.625462,"longitude":-74.179915,"type":"0","fuel":"0","open":"3:00","close":"15:00","monday":"Yes","tuesday":"Yes","wednesday":"Yes","thursday":"Yes","friday":"Yes","saturday":"No","sunday":"","vehicle":0,"payment":"0","flow":2,"special":""},{"id":17110,"name":"Clean Energy - Valhalla","status":"1","address":"27 Dana Rd","city":"Hawthorne","state":"NY","zip":"10532","country":"USA","latitude":41.081748,"longitude":-73.817648,"type":"0","fuel":"0","open":"4:00","close":"16:00","monday":"Yes","tuesday":"Yes","wednesday":"Yes","thursday":"Yes","friday":"Yes","saturday":"No","sunday":"","vehicle":0,"payment":"0","flow":2,"special":""},{"id":17114,"name":"Clean Energy - Canarsie - National Grid","status":"1","address":"8424 Ditmas Ave","city":"Brooklyn","state":"NY","zip":"11236","country":"USA","latitude":40.644506,"longitude":-73.918741,"type":"0","fuel":"0","open":"5:00","close":"17:00","monday":"Yes","tuesday":"Yes","wednesday":"Yes","thursday":"Yes","friday":"Yes","saturday":"No","sunday":"","vehicle":0,"payment":"0","flow":2,"special":""},{"id":17115,"name":"Clean Energy - Greenpoint - National Grid","status":"1","address":"287 Maspeth Avenue","city":"Brooklyn","state":"NY","zip":"11211","country":"USA","latitude":40.718833,"longitude":-73.930111,"type":"0","fuel":"0","open":"6:00","close":"18:00","monday":"Yes","tuesday":"Yes","wednesday":"Yes","thursday":"Yes","friday":"Yes","saturday":"No","sunday":"","vehicle":0,"payment":"0","flow":2,"special":""},{"id":17131,"name":"Clean Energy - Hewlett - National Grid","status":"1","address":"455 Mill Rd","city":"Hewlett","state":"NY","zip":"11557","country":"USA","latitude":40.643332,"longitude":-73.704542,"type":"0","fuel":"0","open":"7:00","close":"19:00","monday":"Yes","tuesday":"Yes","wednesday":"Yes","thursday":"Yes","friday":"Yes","saturday":"No","sunday":"","vehicle":0,"payment":"0","flow":2,"special":""},{"id":17160,"name":"Clean Energy - Brookhaven","status":"1","address":"350 Horseblock Road","city":"Brookhaven","state":"NY","zip":"11713","country":"USA","latitude":40.805345,"longitude":-72.937752,"type":"0","fuel":"0","open":"8:00","close":"20:00","monday":"Yes","tuesday":"Yes","wednesday":"Yes","thursday":"Yes","friday":"Yes","saturday":"No","sunday":"","vehicle":0,"payment":"0","flow":2,"special":""},{"id":17161,"name":"Clean Energy - Brentwood - National Grid","status":"1","address":"31 Grand Blvd","city":"Brentwood","state":"NY","zip":"11717","country":"USA","latitude":40.78386,"longitude":-73.22276,"type":"0","fuel":"2","open":"9:00","close":"21:00","monday":"Yes","tuesday":"Yes","wednesday":"Yes","thursday":"Yes","friday":"Yes","saturday":"No","sunday":"","vehicle":0,"payment":"0","flow":2,"special":""},{"id":17170,"name":"Clean Energy - Town of Smithtown- Kings Park","status":"1","address":"85 Old Northport Road","city":"Kings Park","state":"NY","zip":"11754","country":"USA","latitude":40.86954,"longitude":-73.265955,"type":"0","fuel":"0","open":"10:00","close":"22:00","monday":"Yes","tuesday":"Yes","wednesday":"Yes","thursday":"Yes","friday":"Yes","saturday":"No","sunday":"","vehicle":0,"payment":"0","flow":2,"special":""},{"id":17171,"name":"Clean Energy - Hicksville - National Grid","status":"1","address":"175 E Old Country Rd","city":"Hicksville","state":"NY","zip":"11801","country":"USA","latitude":40.764771,"longitude":-73.509043,"type":"0","fuel":"0","open":"11:00","close":"23:00","monday":"Yes","tuesday":"Yes","wednesday":"Yes","thursday":"Yes","friday":"Yes","saturday":"No","sunday":"","vehicle":0,"payment":"0","flow":2,"special":""},{"id":17172,"name":"Clean Energy - Riverhead - National Grid","status":"1","address":"117 Doctors Path","city":"Riverhead","state":"NY","zip":"11901","country":"USA","latitude":40.940796,"longitude":-72.652292,"type":"0","fuel":"0","open":"12:00","close":"0:00","monday":"Yes","tuesday":"Yes","wednesday":"Yes","thursday":"Yes","friday":"Yes","saturday":"No","sunday":"","vehicle":0,"payment":"0","flow":2,"special":""},{"id":17201,"name":"Clean Energy - Atlantic County Utilities Authority - Egg Harbor Township","status":"1","address":"6700 Delilah Road","city":"Egg Harbor Township","state":"NJ","zip":"8234","country":"USA","latitude":39.419449,"longitude":-74.538122,"type":"0","fuel":"0","open":"13:00","close":"1:00","monday":"Yes","tuesday":"Yes","wednesday":"Yes","thursday":"Yes","friday":"Yes","saturday":"No","sunday":"","vehicle":0,"payment":"0","flow":2,"special":""},{"id":17204,"name":"Clean Energy - Waste Management - Camden","status":"1","address":"1001 Fairview street","city":"Camden","state":"NJ","zip":"8104","country":"USA","latitude":39.914158,"longitude":-75.107173,"type":"0","fuel":"0","open":"14:00","close":"2:00","monday":"Yes","tuesday":"Yes","wednesday":"Yes","thursday":"Yes","friday":"Yes","saturday":"No","sunday":"","vehicle":0,"payment":"0","flow":2,"special":""},{"id":17206,"name":"Clean Energy - Atlantic City Jitney Association","status":"1","address":"6821 Delilah Road","city":"Egg Harbor Township","state":"NJ","zip":"8234","country":"USA","latitude":39.411972,"longitude":-74.530201,"type":"0","fuel":"2","open":"15:00","close":"3:00","monday":"Yes","tuesday":"Yes","wednesday":"Yes","thursday":"Yes","friday":"Yes","saturday":"No","sunday":"","vehicle":0,"payment":"0","flow":2,"special":""},{"id":17207,"name":"Clean Energy - South Jersey Gas","status":"1","address":"142 South Main Street","city":"Glassboro","state":"NJ","zip":"8028","country":"USA","latitude":39.697677,"longitude":-75.113065,"type":"0","fuel":"0","open":"16:00","close":"4:00","monday":"Yes","tuesday":"Yes","wednesday":"Yes","thursday":"Yes","friday":"Yes","saturday":"No","sunday":"","vehicle":0,"payment":"0","flow":2,"special":""},{"id":17210,"name":"Clean Energy - Newark Airport - Gulf Oil","status":"1","address":"Brewster Rd","city":"Newark","state":"NJ","zip":"7114","country":"USA","latitude":40.691831,"longitude":-74.184861,"type":"0","fuel":"0","open":"17:00","close":"5:00","monday":"Yes","tuesday":"Yes","wednesday":"Yes","thursday":"Yes","friday":"Yes","saturday":"No","sunday":"","vehicle":0,"payment":"0","flow":2,"special":""},{"id":17211,"name":"Clean Energy - City of Atlantic City ","status":"1","address":"1100 N Albany Ave","city":"Atlantic City","state":"NJ","zip":"8401","country":"USA","latitude":39.36484,"longitude":-74.473153,"type":"0","fuel":"0","open":"18:00","close":"6:00","monday":"Yes","tuesday":"Yes","wednesday":"Yes","thursday":"Yes","friday":"Yes","saturday":"No","sunday":"","vehicle":0,"payment":"0","flow":2,"special":""},{"id":17253,"name":"Clean Energy - Philadelphia Int'l Airport - Wally Park","status":"1","address":"1 Scott Way","city":"Lester","state":"PA","zip":"19113","country":"USA","latitude":39.872578,"longitude":-75.260674,"type":"0","fuel":"0","open":"19:00","close":"7:00","monday":"Yes","tuesday":"Yes","wednesday":"Yes","thursday":"Yes","friday":"Yes","saturday":"No","sunday":"","vehicle":0,"payment":"0","flow":2,"special":""},{"id":17254,"name":"Clean Energy - Tyburn LLC","status":"1","address":"451 Tyburn Road","city":"Fairless Hills","state":"PA","zip":"19030","country":"USA","latitude":40.179302,"longitude":-74.799935,"type":"0","fuel":"0","open":"20:00","close":"8:00","monday":"Yes","tuesday":"Yes","wednesday":"Yes","thursday":"Yes","friday":"Yes","saturday":"No","sunday":"","vehicle":0,"payment":"0","flow":2,"special":""},{"id":17255,"name":"Clean Energy - Smithton Flying J #620","status":"0","address":"122 Fitz Henry Road","city":"Smithton","state":"PA","zip":"15479","country":"USA","latitude":40.169987,"longitude":-79.731683,"type":"0","fuel":"0","open":"21:00","close":"9:00","monday":"Yes","tuesday":"Yes","wednesday":"Yes","thursday":"Yes","friday":"Yes","saturday":"No","sunday":"","vehicle":0,"payment":"0","flow":2,"special":""},{"id":17259,"name":"Clean Energy - Carlisle Flying J #708","status":"0","address":"1501 Harrisburg Pike","city":"Carlisle","state":"PA","zip":"17013","country":"USA","latitude":40.23424,"longitude":-77.125656,"type":"0","fuel":"1","open":"22:00","close":"10:00","monday":"Yes","tuesday":"Yes","wednesday":"Yes","thursday":"Yes","friday":"Yes","saturday":"No","sunday":"","vehicle":0,"payment":"0","flow":2,"special":""},{"id":17260,"name":"Clean Energy - Mill Hall Flying J #709","status":"0","address":"5609 Nittany Valley Drive","city":"Mill Hall","state":"PA","zip":"17751","country":"USA","latitude":41.02861,"longitude":-77.5228,"type":"0","fuel":"0","open":"23:00","close":"11:00","monday":"Yes","tuesday":"Yes","wednesday":"Yes","thursday":"Yes","friday":"Yes","saturday":"No","sunday":"","vehicle":0,"payment":"0","flow":2,"special":""},{"id":17305,"name":"Clean Energy - Tampa International Airport","status":"1","address":"4750 W South Avenue","city":"Tampa","state":"FL","zip":"33614","country":"USA","latitude":27.991863,"longitude":-82.523133,"type":"0","fuel":"0","open":"0:00","close":"12:00","monday":"Yes","tuesday":"Yes","wednesday":"Yes","thursday":"Yes","friday":"Yes","saturday":"No","sunday":"","vehicle":0,"payment":"0","flow":2,"special":""},{"id":17308,"name":"Clean Energy - Midway (Quincy) Flying J #623","status":"0","address":"32608 Blue Star Hwy","city":"Midway","state":"FL","zip":"32351","country":"USA","latitude":30.492724,"longitude":-84.429542,"type":"0","fuel":"0","open":"1:00","close":"13:00","monday":"Yes","tuesday":"Yes","wednesday":"Yes","thursday":"Yes","friday":"Yes","saturday":"No","sunday":"","vehicle":0,"payment":"0","flow":2,"special":""},{"id":17521,"name":"Clean Energy - Everett - National Grid","status":"1","address":"16 Rover St","city":"Everett","state":"MA","zip":"2149","country":"USA","latitude":42.392512,"longitude":-71.062561,"type":"0","fuel":"0","open":"2:00","close":"14:00","monday":"Yes","tuesday":"Yes","wednesday":"Yes","thursday":"Yes","friday":"Yes","saturday":"No","sunday":"","vehicle":0,"payment":"0","flow":2,"special":""},{"id":17522,"name":"Clean Energy - South Yarmouth-National Grid","status":"1","address":"127 Whites Path","city":"South Yarmouth","state":"MA","zip":"2664","country":"USA","latitude":41.690139,"longitude":-70.202285,"type":"0","fuel":"0","open":"3:00","close":"15:00","monday":"Yes","tuesday":"Yes","wednesday":"Yes","thursday":"Yes","friday":"Yes","saturday":"No","sunday":"","vehicle":0,"payment":"0","flow":2,"special":""},{"id":17523,"name":"Clean Energy - West Roxbury - National Grid","status":"1","address":"201 Rivermoor Street","city":"West Roxbury","state":"MA","zip":"2132","country":"USA","latitude":42.279226,"longitude":-71.181377,"type":"0","fuel":"0","open":"4:00","close":"16:00","monday":"Yes","tuesday":"Yes","wednesday":"Yes","thursday":"Yes","friday":"Yes","saturday":"No","sunday":"","vehicle":0,"payment":"0","flow":2,"special":""},{"id":17536,"name":"Clean Energy - All Waste/USA Hauling","status":"1","address":"33 Maxim Road","city":"Hartford","state":"CT","zip":"6114","country":"USA","latitude":41.742218,"longitude":-72.65887,"type":"0","fuel":"2","open":"5:00","close":"17:00","monday":"Yes","tuesday":"Yes","wednesday":"Yes","thursday":"Yes","friday":"Yes","saturday":"No","sunday":"","vehicle":0,"payment":"0","flow":2,"special":""},{"id":17537,"name":"Clean Energy - Bloomfield - Yellow Cab","status":"1","address":"86 Granby Street","city":"Bloomfield","state":"CT","zip":"6002","country":"USA","latitude":41.810889,"longitude":-72.708572,"type":"0","fuel":"0","open":"6:00","close":"18:00","monday":"Yes","tuesday":"Yes","wednesday":"Yes","thursday":"Yes","friday":"Yes","saturday":"No","sunday":"","vehicle":0,"payment":"0","flow":2,"special":""},{"id":17538,"name":"Clean Energy - West Haven - Metro Taxi","status":"1","address":"65 Industry Drive","city":"West Haven","state":"CT","zip":"6516","country":"USA","latitude":41.290894,"longitude":-72.985808,"type":"0","fuel":"0","open":"7:00","close":"19:00","monday":"Yes","tuesday":"Yes","wednesday":"Yes","thursday":"Yes","friday":"Yes","saturday":"No","sunday":"","vehicle":0,"payment":"0","flow":2,"special":""},{"id":17539,"name":"Clean Energy - Hartford Bradley Airport- Shell","status":"1","address":"80 Ella Grasso Turnpike","city":"Windsor Locks","state":"CT","zip":"6096","country":"USA","latitude":41.920173,"longitude":-72.671484,"type":"0","fuel":"0","open":"8:00","close":"20:00","monday":"Yes","tuesday":"Yes","wednesday":"Yes","thursday":"Yes","friday":"Yes","saturday":"No","sunday":"","vehicle":0,"payment":"0","flow":2,"special":""},{"id":17545,"name":"Clean Energy - Cumberland - National Grid","status":"1","address":"1595 Mendon Rd","city":"Cumberland","state":"RI","zip":"2864","country":"USA","latitude":41.943221,"longitude":-71.43189,"type":"0","fuel":"0","open":"9:00","close":"21:00","monday":"Yes","tuesday":"Yes","wednesday":"Yes","thursday":"Yes","friday":"Yes","saturday":"No","sunday":"","vehicle":0,"payment":"0","flow":2,"special":""},{"id":17546,"name":"Clean Energy - Providence - National Grid","status":"1","address":"642 Allens Ave","city":"Providence","state":"RI","zip":"2905","country":"USA","latitude":41.796396,"longitude":-71.398103,"type":"0","fuel":"0","open":"10:00","close":"22:00","monday":"Yes","tuesday":"Yes","wednesday":"Yes","thursday":"Yes","friday":"Yes","saturday":"No","sunday":"","vehicle":0,"payment":"0","flow":2,"special":""},{"id":17550,"name":"Clean Energy - Baltimore International  Airport","status":"1","address":"131 Aaronson Drive","city":"Baltimore","state":"MD","zip":"21240","country":"USA","latitude":39.187082,"longitude":-76.655871,"type":"0","fuel":"1","open":"11:00","close":"23:00","monday":"Yes","tuesday":"Yes","wednesday":"Yes","thursday":"Yes","friday":"Yes","saturday":"No","sunday":"","vehicle":0,"payment":"0","flow":2,"special":""},{"id":17554,"name":"Clean Energy - North East (Elkton) Flying J #784","status":"0","address":"1 Center Drive","city":"Northeast","state":"MD","zip":"21901","country":"USA","latitude":39.625226,"longitude":-75.949345,"type":"0","fuel":"0","open":"12:00","close":"0:00","monday":"Yes","tuesday":"Yes","wednesday":"Yes","thursday":"Yes","friday":"Yes","saturday":"No","sunday":"","vehicle":0,"payment":"0","flow":2,"special":""},{"id":17580,"name":"Clean Energy - Gretna (Omaha) Flying J #686","status":"0","address":"15010 South State Hwy 31","city":"Gretna","state":"NE","zip":"68028","country":"USA","latitude":41.092828,"longitude":-96.253416,"type":"0","fuel":"0","open":"13:00","close":"1:00","monday":"Yes","tuesday":"Yes","wednesday":"Yes","thursday":"Yes","friday":"Yes","saturday":"No","sunday":"","vehicle":0,"payment":"0","flow":2,"special":""},{"id":17581,"name":"Clean Energy - North Platte Flying J #687","status":"0","address":"3400 S Newberry Road","city":"North Platte","state":"NE","zip":"69101","country":"USA","latitude":41.10167,"longitude":-100.727,"type":"0","fuel":"0","open":"14:00","close":"2:00","monday":"Yes","tuesday":"Yes","wednesday":"Yes","thursday":"Yes","friday":"Yes","saturday":"No","sunday":"","vehicle":0,"payment":"0","flow":2,"special":""},{"id":17607,"name":"Clean Energy - Quarles - Richmond","status":"1","address":"211 Maury Street","city":"Richmond","state":"VA","zip":"23224","country":"USA","latitude":37.522537,"longitude":-77.433467,"type":"0","fuel":"0","open":"15:00","close":"3:00","monday":"Yes","tuesday":"Yes","wednesday":"Yes","thursday":"Yes","friday":"Yes","saturday":"No","sunday":"","vehicle":0,"payment":"0","flow":2,"special":""},{"id":17608,"name":"Clean Energy - Quarles - Washington Dulles Intrl Airport","status":"1","address":"45149 Old Ox Rd","city":"Sterling","state":"VA","zip":"20166","country":"USA","latitude":38.979057,"longitude":-77.438912,"type":"0","fuel":"0","open":"16:00","close":"4:00","monday":"Yes","tuesday":"Yes","wednesday":"Yes","thursday":"Yes","friday":"Yes","saturday":"No","sunday":"","vehicle":0,"payment":"0","flow":2,"special":""},{"id":17622,"name":"Clean Energy - Blacksburg Flying J  #711","status":"0","address":"1011-A North Mountain St","city":"Blacksburg","state":"SC","zip":"29702","country":"USA","latitude":35.142336,"longitude":-81.509795,"type":"0","fuel":"2","open":"17:00","close":"5:00","monday":"Yes","tuesday":"Yes","wednesday":"Yes","thursday":"Yes","friday":"Yes","saturday":"No","sunday":"","vehicle":0,"payment":"0","flow":2,"special":""},{"id":17630,"name":"Clean Energy - Knoxville Flying J #722","status":"0","address":"800 Watt Road","city":"Knoxville","state":"TN","zip":"37932","country":"USA","latitude":35.881371,"longitude":-84.236453,"type":"0","fuel":"0","open":"18:00","close":"6:00","monday":"Yes","tuesday":"Yes","wednesday":"Yes","thursday":"Yes","friday":"Yes","saturday":"No","sunday":"","vehicle":0,"payment":"0","flow":2,"special":""},{"id":17632,"name":"Clean Energy - Lebanon Pilot #411","status":"0","address":"921 Murfreesboro","city":"Lebanon","state":"TN","zip":"37090","country":"USA","latitude":36.179727,"longitude":-86.300141,"type":"0","fuel":"0","open":"19:00","close":"7:00","monday":"Yes","tuesday":"Yes","wednesday":"Yes","thursday":"Yes","friday":"Yes","saturday":"No","sunday":"","vehicle":0,"payment":"0","flow":2,"special":""},{"id":17671,"name":"Clean Energy - College Park","status":"1","address":"4555 Edison Drive","city":"Atlanta","state":"GA","zip":"30337","country":"USA","latitude":33.632322,"longitude":-84.465897,"type":"0","fuel":"0","open":"20:00","close":"8:00","monday":"Yes","tuesday":"Yes","wednesday":"Yes","thursday":"Yes","friday":"Yes","saturday":"No","sunday":"","vehicle":0,"payment":"0","flow":2,"special":""},{"id":17675,"name":"Clean Energy - PS Energy - Lithonia","status":"1","address":"2490 Lithonia Industrial Blvd","city":"Lithonia","state":"GA","zip":"30058","country":"USA","latitude":33.712877,"longitude":-84.125801,"type":"0","fuel":"2","open":"21:00","close":"9:00","monday":"Yes","tuesday":"Yes","wednesday":"Yes","thursday":"Yes","friday":"Yes","saturday":"No","sunday":"","vehicle":0,"payment":"0","flow":2,"special":""},{"id":17677,"name":"Clean Energy - PS Energy - Atlanta","status":"1","address":"320 Whitehall Street","city":"Atlanta","state":"GA","zip":"30303","country":"USA","latitude":33.746059,"longitude":-84.398865,"type":"0","fuel":"0","open":"22:00","close":"10:00","monday":"Yes","tuesday":"Yes","wednesday":"Yes","thursday":"Yes","friday":"Yes","saturday":"No","sunday":"","vehicle":0,"payment":"0","flow":2,"special":""},{"id":17678,"name":"Clean Energy - PS Energy - East Point","status":"1","address":"2192 Sylvan Rd","city":"Atlanta","state":"GA","zip":"30344","country":"USA","latitude":33.694489,"longitude":-84.418012,"type":"0","fuel":"0","open":"23:00","close":"11:00","monday":"Yes","tuesday":"Yes","wednesday":"Yes","thursday":"Yes","friday":"Yes","saturday":"No","sunday":"","vehicle":0,"payment":"0","flow":2,"special":""},{"id":17679,"name":"Clean Energy - Tucker","status":"1","address":"1833 Tucker Industrial Blvd","city":"Tucker","state":"GA","zip":"30084","country":"USA","latitude":33.83623,"longitude":-84.203011,"type":"0","fuel":"0","open":"0:00","close":"12:00","monday":"Yes","tuesday":"Yes","wednesday":"Yes","thursday":"Yes","friday":"Yes","saturday":"No","sunday":"","vehicle":0,"payment":"0","flow":2,"special":""},{"id":17682,"name":"Clean Energy - Tifton Pilot #192","status":"0","address":"4457 Old Union Road","city":"Tifton","state":"GA","zip":"31794","country":"USA","latitude":31.426546,"longitude":-83.517199,"type":"0","fuel":"0","open":"1:00","close":"13:00","monday":"Yes","tuesday":"Yes","wednesday":"Yes","thursday":"Yes","friday":"Yes","saturday":"No","sunday":"","vehicle":0,"payment":"0","flow":2,"special":""},{"id":17684,"name":"Clean Energy - Atlanta East","status":"0","address":"3209 Mooreland Ave","city":"Conley","state":"GA","zip":"30288","country":"USA","latitude":33.663416,"longitude":-84.339895,"type":"0","fuel":"0","open":"2:00","close":"14:00","monday":"Yes","tuesday":"Yes","wednesday":"Yes","thursday":"Yes","friday":"Yes","saturday":"No","sunday":"","vehicle":0,"payment":"0","flow":2,"special":""},{"id":17686,"name":"Clean Energy - Dalton Pilot # 421","status":"0","address":"142 Carbondale Road","city":"Dalton","state":"GA","zip":"30721","country":"USA","latitude":34.654709,"longitude":-84.980472,"type":"0","fuel":"1","open":"3:00","close":"15:00","monday":"Yes","tuesday":"Yes","wednesday":"Yes","thursday":"Yes","friday":"Yes","saturday":"No","sunday":"","vehicle":0,"payment":"0","flow":2,"special":""},{"id":18508,"name":"Clean Energy - Winslow Flying J #612","status":"0","address":"400 Transcon Lane","city":"Winslow","state":"AZ","zip":"86047","country":"USA","latitude":35.015442,"longitude":-110.674243,"type":"0","fuel":"0","open":"4:00","close":"16:00","monday":"Yes","tuesday":"Yes","wednesday":"Yes","thursday":"Yes","friday":"Yes","saturday":"No","sunday":"","vehicle":0,"payment":"0","flow":2,"special":""},{"id":18511,"name":"Clean Energy - Lake Station Flying J #650","status":"0","address":"1401 Ripley Street","city":"Lake Station","state":"IN","zip":"46405","country":"USA","latitude":41.588068,"longitude":-87.240392,"type":"0","fuel":"0","open":"5:00","close":"17:00","monday":"Yes","tuesday":"Yes","wednesday":"Yes","thursday":"Yes","friday":"Yes","saturday":"No","sunday":"","vehicle":0,"payment":"0","flow":2,"special":""},{"id":18515,"name":"Clean Energy - Caldwell Flying J #638","status":"0","address":"3512 Franklin Road","city":"Caldwell","state":"ID","zip":"83605","country":"USA","latitude":43.661042,"longitude":-116.654245,"type":"0","fuel":"0","open":"6:00","close":"18:00","monday":"Yes","tuesday":"Yes","wednesday":"Yes","thursday":"Yes","friday":"Yes","saturday":"No","sunday":"","vehicle":0,"payment":"0","flow":2,"special":""},{"id":18516,"name":"Clean Energy - Latta (Dillon) Flying J #713","status":"1","address":"115 Mill Branch Road","city":"Latta","state":"SC","zip":"29565","country":"USA","latitude":34.339986,"longitude":-79.533982,"type":"0","fuel":"2","open":"7:00","close":"19:00","monday":"Yes","tuesday":"Yes","wednesday":"Yes","thursday":"Yes","friday":"Yes","saturday":"No","sunday":"","vehicle":0,"payment":"0","flow":2,"special":""},{"id":18517,"name":"Clean Energy - Joplin Flying J #669","status":"0","address":"11570 Highway FF","city":"Joplin","state":"MO","zip":"64804","country":"USA","latitude":37.05556,"longitude":-94.4292,"type":"0","fuel":"0","open":"8:00","close":"20:00","monday":"Yes","tuesday":"Yes","wednesday":"Yes","thursday":"Yes","friday":"Yes","saturday":"No","sunday":"","vehicle":0,"payment":"0","flow":2,"special":""},{"id":18519,"name":"Clean Energy - Oak Creek Pilot #40","status":"0","address":"2031 West Ryan Road","city":"Oak Creek","state":"WI","zip":"53154","country":"USA","latitude":42.8725,"longitude":-87.942616,"type":"0","fuel":"0","open":"9:00","close":"21:00","monday":"Yes","tuesday":"Yes","wednesday":"Yes","thursday":"Yes","friday":"Yes","saturday":"No","sunday":"","vehicle":0,"payment":"0","flow":2,"special":""},{"id":18524,"name":"Clean Energy - Ruther Glenn (Carmel Church) Flying J #682","status":"0","address":"24279 Rogers Clark Blvd.","city":"Carmel Church","state":"VA","zip":"22546","country":"USA","latitude":37.933283,"longitude":-77.472395,"type":"0","fuel":"0","open":"10:00","close":"22:00","monday":"Yes","tuesday":"Yes","wednesday":"Yes","thursday":"Yes","friday":"Yes","saturday":"No","sunday":"","vehicle":0,"payment":"0","flow":2,"special":""},{"id":18536,"name":"Clean Energy - Beaver (High Country) ","status":"0","address":"653 West 1400 North","city":"Beaver","state":"UT","zip":"84713","country":"USA","latitude":38.27688796,"longitude":-112.6412489,"type":"0","fuel":"0","open":"11:00","close":"23:00","monday":"Yes","tuesday":"Yes","wednesday":"Yes","thursday":"Yes","friday":"Yes","saturday":"No","sunday":"","vehicle":0,"payment":"0","flow":2,"special":""},{"id":18537,"name":"Clean Energy - Chicago Stevenson Expressway","status":"0","address":"4220 W. 36th Street","city":"Chicago","state":"IL","zip":"60632","country":"USA","latitude":41.827643,"longitude":-87.732064,"type":"0","fuel":"0","open":"12:00","close":"0:00","monday":"Yes","tuesday":"Yes","wednesday":"Yes","thursday":"Yes","friday":"Yes","saturday":"No","sunday":"","vehicle":0,"payment":"0","flow":2,"special":""},{"id":18538,"name":"Clean Energy - Mesquite TX","status":"1","address":"1700 S Town E Blvd","city":"Mesquite","state":"TX","zip":"75149","country":"USA","latitude":32.789133,"longitude":-96.654346,"type":"0","fuel":"2","open":"13:00","close":"1:00","monday":"Yes","tuesday":"Yes","wednesday":"Yes","thursday":"Yes","friday":"Yes","saturday":"No","sunday":"","vehicle":0,"payment":"0","flow":2,"special":""},{"id":18542,"name":"Clean Energy - Fort Chiswell Flying J #620","status":"0","address":"139 Factory Outlet Drive","city":"Fort Chiswell","state":"VA","zip":"24360","country":"USA","latitude":36.944687,"longitude":-80.944261,"type":"0","fuel":"0","open":"14:00","close":"2:00","monday":"Yes","tuesday":"Yes","wednesday":"Yes","thursday":"Yes","friday":"Yes","saturday":"No","sunday":"","vehicle":0,"payment":"0","flow":2,"special":""},{"id":18545,"name":"Clean Energy - Franklin Pilot #9","status":"1","address":"6830 Franklin-Lebanon Rd.","city":"Franklin","state":"OH","zip":"45005","country":"USA","latitude":39.541713,"longitude":-84.29148,"type":"0","fuel":"0","open":"15:00","close":"3:00","monday":"Yes","tuesday":"Yes","wednesday":"Yes","thursday":"Yes","friday":"Yes","saturday":"No","sunday":"","vehicle":0,"payment":"0","flow":2,"special":""},{"id":18548,"name":"Clean Energy - Altoona Flying J #913","status":"0","address":"3231 Adventureland Drive","city":"Altoona","state":"IA","zip":"50009","country":"USA","latitude":41.6586,"longitude":-93.4993,"type":"0","fuel":"0","open":"16:00","close":"4:00","monday":"Yes","tuesday":"Yes","wednesday":"Yes","thursday":"Yes","friday":"Yes","saturday":"No","sunday":"","vehicle":0,"payment":"1","flow":2,"special":""},{"id":18552,"name":"Clean Energy - North Little Rock Pilot #332","status":"0","address":"3300 Highway 391 North","city":"Little Rock","state":"AR","zip":"72117","country":"USA","latitude":34.780029,"longitude":-92.126182,"type":"0","fuel":"0","open":"17:00","close":"5:00","monday":"Yes","tuesday":"Yes","wednesday":"Yes","thursday":"Yes","friday":"Yes","saturday":"No","sunday":"","vehicle":0,"payment":"0","flow":2,"special":""},{"id":18553,"name":"Clean Energy - Jacksonville","status":"1","address":"440-1 Lane Ave. South","city":"Jacksonville","state":"FL","zip":"32254","country":"USA","latitude":30.318245,"longitude":-81.752545,"type":"0","fuel":"2","open":"18:00","close":"6:00","monday":"Yes","tuesday":"Yes","wednesday":"Yes","thursday":"Yes","friday":"Yes","saturday":"No","sunday":"","vehicle":0,"payment":"0","flow":2,"special":""},{"id":20015,"name":"Clean Energy - Wells Flying J #692","status":"0","address":"156 Hwy 93 South","city":"Wells","state":"NV","zip":"89835","country":"USA","latitude":41.097927,"longitude":-114.957218,"type":"0","fuel":"0","open":"19:00","close":"7:00","monday":"Yes","tuesday":"Yes","wednesday":"Yes","thursday":"Yes","friday":"Yes","saturday":"No","sunday":"","vehicle":0,"payment":"0","flow":2,"special":""},{"id":20018,"name":"Clean Energy - Pontoon Beach Flying J #645","status":"1","address":"1310 East Chain of Rocks Road","city":"Pontoon Beach","state":"IL","zip":"62040","country":"USA","latitude":38.75985,"longitude":-90.064531,"type":"0","fuel":"0","open":"20:00","close":"8:00","monday":"Yes","tuesday":"Yes","wednesday":"Yes","thursday":"Yes","friday":"Yes","saturday":"No","sunday":"","vehicle":0,"payment":"0","flow":2,"special":""},{"id":20021,"name":"Clean Energy - Graham Flying J #682","status":"0","address":"1055 Jimmie Kerr Road","city":"Graham","state":"NC","zip":"27258","country":"USA","latitude":36.07184,"longitude":-79.352714,"type":"0","fuel":"0","open":"21:00","close":"9:00","monday":"Yes","tuesday":"Yes","wednesday":"Yes","thursday":"Yes","friday":"Yes","saturday":"No","sunday":"","vehicle":0,"payment":"0","flow":2,"special":""},{"id":20023,"name":"Clean Energy - Scott (Lafayette)","status":"0","address":"230 N. Ambassador Caffery Pkwy.","city":"Scott","state":"LA","zip":"70583","country":"USA","latitude":30.252432,"longitude":-92.06543,"type":"0","fuel":"0","open":"22:00","close":"10:00","monday":"Yes","tuesday":"Yes","wednesday":"Yes","thursday":"Yes","friday":"Yes","saturday":"No","sunday":"","vehicle":0,"payment":"0","flow":2,"special":""},{"id":20048,"name":"Clean Energy - Phoenix Flying J #611","status":"1","address":"6700 West Latham","city":"Phoenix","state":"AZ","zip":"85043","country":"USA","latitude":33.460979,"longitude":-112.204436,"type":"0","fuel":"0","open":"23:00","close":"11:00","monday":"Yes","tuesday":"Yes","wednesday":"Yes","thursday":"Yes","friday":"Yes","saturday":"No","sunday":"","vehicle":0,"payment":"0","flow":2,"special":""},{"id":20065,"name":"Clean Energy - Orlando Airport","status":"0","address":"6155 Cargo Road ","city":"Orlando","state":"FL","zip":"32827","country":"USA","latitude":28.44234,"longitude":-81.299466,"type":"0","fuel":"1","open":"0:00","close":"12:00","monday":"Yes","tuesday":"Yes","wednesday":"Yes","thursday":"Yes","friday":"Yes","saturday":"No","sunday":"","vehicle":0,"payment":"0","flow":2,"special":""},{"id":20066,"name":"Clean Energy - Atlas Disposal","status":"1","address":"8550 Fruitridge Road","city":"Sacramento","state":"CA","zip":"95828","country":"USA","latitude":38.522854,"longitude":-121.387084,"type":"1","fuel":"0","open":"1:00","close":"13:00","monday":"Yes","tuesday":"Yes","wednesday":"Yes","thursday":"Yes","friday":"Yes","saturday":"No","sunday":"","vehicle":0,"payment":"0","flow":2,"special":""},{"id":20072,"name":"Clean Energy - Matthews Flying J #671","status":"0","address":"703 State Hwy 80","city":"Matthews","state":"MO","zip":"63867","country":"USA","latitude":36.760897,"longitude":-89.541213,"type":"0","fuel":"0","open":"2:00","close":"14:00","monday":"Yes","tuesday":"Yes","wednesday":"Yes","thursday":"Yes","friday":"Yes","saturday":"No","sunday":"","vehicle":0,"payment":"0","flow":2,"special":""},{"id":20111,"name":"Clean Energy - Oakdale Road Ranger","status":"0","address":"102 E. Woody St.","city":"Oakdale","state":"WI","zip":"53154","country":"USA","latitude":43.963955,"longitude":-90.375531,"type":"0","fuel":"0","open":"3:00","close":"15:00","monday":"Yes","tuesday":"Yes","wednesday":"Yes","thursday":"Yes","friday":"Yes","saturday":"No","sunday":"","vehicle":0,"payment":"0","flow":2,"special":""},{"id":20135,"name":"Clean Energy - London Petro Canada","status":"1","address":"1331 Dundas St East","city":"London","state":"ON","zip":"N5W 5P3","country":"Canada","latitude":43.264993,"longitude":-79.94719,"type":"0","fuel":"0","open":"4:00","close":"16:00","monday":"Yes","tuesday":"Yes","wednesday":"Yes","thursday":"Yes","friday":"Yes","saturday":"No","sunday":"","vehicle":0,"payment":"0","flow":2,"special":""},{"id":20140,"name":"Clean Energy - Roland Pilot #196","status":"0","address":"123 West Ray Fine Boulevard","city":"Roland","state":"OK","zip":"74954","country":"USA","latitude":35.404099,"longitude":-94.521652,"type":"0","fuel":"0","open":"5:00","close":"17:00","monday":"Yes","tuesday":"Yes","wednesday":"Yes","thursday":"Yes","friday":"Yes","saturday":"No","sunday":"","vehicle":0,"payment":"0","flow":2,"special":""},{"id":20146,"name":"Clean Energy - Kansas City - Kansas St.","status":"0","address":"4650 Kansas Ave","city":"Kansas City","state":"KS","zip":"66106","country":"USA","latitude":39.091477,"longitude":-94.682853,"type":"0","fuel":"0","open":"6:00","close":"18:00","monday":"Yes","tuesday":"Yes","wednesday":"Yes","thursday":"Yes","friday":"Yes","saturday":"No","sunday":"","vehicle":0,"payment":"0","flow":2,"special":""},{"id":20147,"name":"Clean Energy - West Sacramento CA - West Capitol ","status":"0","address":"4305 West Capitol Ave.","city":"West Sacramento","state":"CA","zip":"95691","country":"USA","latitude":38.576487,"longitude":-121.570269,"type":"0","fuel":"2","open":"7:00","close":"19:00","monday":"Yes","tuesday":"Yes","wednesday":"Yes","thursday":"Yes","friday":"Yes","saturday":"No","sunday":"","vehicle":0,"payment":"0","flow":2,"special":""},{"id":20181,"name":"Clean Energy - Georgetown Pilot #353","status":"0","address":"110 Triport Road","city":"Georgetown","state":"KY","zip":"40324","country":"USA","latitude":38.276592,"longitude":-84.554102,"type":"0","fuel":"0","open":"8:00","close":"20:00","monday":"Yes","tuesday":"Yes","wednesday":"Yes","thursday":"Yes","friday":"Yes","saturday":"No","sunday":"","vehicle":0,"payment":"0","flow":2,"special":""},{"id":20183,"name":"Clean Energy - Houston - Valero","status":"0","address":"9221 Wallisville Road","city":"Houston","state":"TX","zip":"77013","country":"USA","latitude":29.793952,"longitude":-95.266295,"type":"0","fuel":"0","open":"9:00","close":"21:00","monday":"Yes","tuesday":"Yes","wednesday":"Yes","thursday":"Yes","friday":"Yes","saturday":"No","sunday":"","vehicle":0,"payment":"0","flow":2,"special":""},{"id":20184,"name":"Clean Energy - George West Pilot #554","status":"0","address":"4066 Hwy 59","city":"George West","state":"TX","zip":"78022","country":"USA","latitude":28.337962,"longitude":-98.029395,"type":"0","fuel":"0","open":"10:00","close":"22:00","monday":"Yes","tuesday":"Yes","wednesday":"Yes","thursday":"Yes","friday":"Yes","saturday":"No","sunday":"","vehicle":0,"payment":"0","flow":2,"special":""},{"id":20187,"name":"Clean Energy - Salt Lake City","status":"0","address":"1101 W 2100 S","city":"Salt Lake City","state":"UT","zip":"84120","country":"USA","latitude":40.725915,"longitude":-111.923133,"type":"0","fuel":"0","open":"11:00","close":"23:00","monday":"Yes","tuesday":"Yes","wednesday":"Yes","thursday":"Yes","friday":"Yes","saturday":"No","sunday":"","vehicle":0,"payment":"0","flow":2,"special":""},{"id":20197,"name":"Clean Energy - Loco Truck Stop - Fruita CO","status":"0","address":"555 Raptor Rd","city":"Fruita","state":"CO","zip":"81521","country":"USA","latitude":39.154741,"longitude":-108.7395,"type":"0","fuel":"0","open":"12:00","close":"0:00","monday":"Yes","tuesday":"Yes","wednesday":"Yes","thursday":"Yes","friday":"Yes","saturday":"No","sunday":"","vehicle":0,"payment":"0","flow":2,"special":""},{"id":20199,"name":"Clean Energy - Charlotte","status":"0","address":"4119 Statesville Rd.","city":"Charlotte","state":"NC","zip":"28299","country":"USA","latitude":35.274967,"longitude":-80.836802,"type":"0","fuel":"0","open":"13:00","close":"1:00","monday":"Yes","tuesday":"Yes","wednesday":"Yes","thursday":"Yes","friday":"Yes","saturday":"No","sunday":"","vehicle":0,"payment":"0","flow":2,"special":""},{"id":20202,"name":"Clean Energy - Pembroke","status":"0","address":"550 Pembroke St.","city":"Pembroke","state":"NH","zip":"3275","country":"USA","latitude":43.174555,"longitude":-71.486251,"type":"0","fuel":"1","open":"14:00","close":"2:00","monday":"Yes","tuesday":"Yes","wednesday":"Yes","thursday":"Yes","friday":"Yes","saturday":"No","sunday":"","vehicle":0,"payment":"0","flow":2,"special":""},{"id":20207,"name":"Clean Energy - Lebanon Pilot #552","status":"0","address":"I-71 & State Route 123","city":"Lebanon","state":"OH","zip":"45036","country":"USA","latitude":39.411337,"longitude":-84.1492,"type":"0","fuel":"0","open":"15:00","close":"3:00","monday":"Yes","tuesday":"Yes","wednesday":"Yes","thursday":"Yes","friday":"Yes","saturday":"No","sunday":"","vehicle":0,"payment":"0","flow":2,"special":""},{"id":20208,"name":"Clean Energy - Vandalia Pilot #97","status":"0","address":"250 Northwoods Blvd","city":"Vandalia","state":"OH","zip":"45377","country":"USA","latitude":39.901473,"longitude":-84.194605,"type":"0","fuel":"0","open":"16:00","close":"4:00","monday":"Yes","tuesday":"Yes","wednesday":"Yes","thursday":"Yes","friday":"Yes","saturday":"No","sunday":"","vehicle":0,"payment":"0","flow":2,"special":""},{"id":20221,"name":"Clean Energy - Albany GA Trailer Lane","status":"0","address":"1540 Trailer Lane","city":"Albany","state":"GA","zip":"31705","country":"USA","latitude":31.539378,"longitude":-84.102895,"type":"0","fuel":"0","open":"17:00","close":"5:00","monday":"Yes","tuesday":"Yes","wednesday":"Yes","thursday":"Yes","friday":"Yes","saturday":"No","sunday":"","vehicle":0,"payment":"0","flow":2,"special":""},{"id":20225,"name":"Clean Energy - Boston Logan Airport","status":"1","address":"81 North Service Road","city":"Boston","state":"MA","zip":"2128","country":"USA","latitude":42.374774,"longitude":-71.026577,"type":"0","fuel":"0","open":"18:00","close":"6:00","monday":"Yes","tuesday":"Yes","wednesday":"Yes","thursday":"Yes","friday":"Yes","saturday":"No","sunday":"","vehicle":0,"payment":"0","flow":2,"special":""},{"id":20227,"name":"Clean Energy - Portland OR","status":"0","address":"10725 N. Vancouver Way","city":"Portland","state":"OR","zip":"97217","country":"USA","latitude":45.600256,"longitude":-122.675025,"type":"0","fuel":"1","open":"19:00","close":"7:00","monday":"Yes","tuesday":"Yes","wednesday":"Yes","thursday":"Yes","friday":"Yes","saturday":"No","sunday":"","vehicle":0,"payment":"0","flow":2,"special":""},{"id":20243,"name":"Clean Energy - Carney's Point Flying J #688","status":"0","address":"326 Slapes Corner","city":"Carney's Point Township","state":"NJ","zip":"8069","country":"USA","latitude":39.68332,"longitude":-75.485945,"type":"0","fuel":"0","open":"20:00","close":"8:00","monday":"Yes","tuesday":"Yes","wednesday":"Yes","thursday":"Yes","friday":"Yes","saturday":"No","sunday":"","vehicle":0,"payment":"0","flow":2,"special":""},{"id":20249,"name":"Clean Energy - Brighton","status":"1","address":"Highway 85 and 168th Ave","city":"Brighton","state":"CO","zip":"80603","country":"USA","latitude":40.002718,"longitude":-104.82006,"type":"0","fuel":"0","open":"21:00","close":"9:00","monday":"Yes","tuesday":"Yes","wednesday":"Yes","thursday":"Yes","friday":"Yes","saturday":"No","sunday":"","vehicle":0,"payment":"0","flow":2,"special":""},{"id":20253,"name":"Clean Energy - West Branch","status":"0","address":"110 Tidewater Dr","city":"West Branch","state":"IA","zip":"52358","country":"USA","latitude":41.660818,"longitude":-91.344784,"type":"0","fuel":"1","open":"22:00","close":"10:00","monday":"Yes","tuesday":"Yes","wednesday":"Yes","thursday":"Yes","friday":"Yes","saturday":"No","sunday":"","vehicle":0,"payment":"0","flow":2,"special":""},{"id":20255,"name":"Clean Energy - Green Bay","status":"0","address":"2231 North Quincy St.","city":"Green Bay","state":"WI","zip":"54302","country":"USA","latitude":44.532057,"longitude":-87.996615,"type":"0","fuel":"0","open":"23:00","close":"11:00","monday":"Yes","tuesday":"Yes","wednesday":"Yes","thursday":"Yes","friday":"Yes","saturday":"No","sunday":"","vehicle":0,"payment":"0","flow":2,"special":""},{"id":20256,"name":"Clean Energy - Denver Broadway","status":"0","address":"6185 Broadway","city":"Denver","state":"CO","zip":"80116","country":"USA","latitude":39.80867,"longitude":-104.988205,"type":"0","fuel":"0","open":"0:00","close":"12:00","monday":"Yes","tuesday":"Yes","wednesday":"Yes","thursday":"Yes","friday":"Yes","saturday":"No","sunday":"","vehicle":0,"payment":"0","flow":2,"special":""},{"id":20259,"name":"Clean Energy - Kansas City - E. Front St.","status":"0","address":"3630 E. Front St","city":"Kansas City","state":"MO","zip":"64120","country":"USA","latitude":39.131849,"longitude":-94.535851,"type":"0","fuel":"0","open":"1:00","close":"13:00","monday":"Yes","tuesday":"Yes","wednesday":"Yes","thursday":"Yes","friday":"Yes","saturday":"No","sunday":"","vehicle":0,"payment":"0","flow":2,"special":""},{"id":20262,"name":"Clean Energy - Louisville KY Preston Ave","status":"0","address":"4626 Preston Ave","city":"Louisville","state":"KY","zip":"40213","country":"USA","latitude":38.180197,"longitude":-85.719261,"type":"0","fuel":"2","open":"2:00","close":"14:00","monday":"Yes","tuesday":"Yes","wednesday":"Yes","thursday":"Yes","friday":"Yes","saturday":"No","sunday":"","vehicle":0,"payment":"0","flow":2,"special":""},{"id":20263,"name":"Clean Energy - Fort Stockton","status":"0","address":"W. 21st St & North Texas hwy 18 ","city":"Fort Stockton","state":"TX","zip":"79735","country":"USA","latitude":30.905603,"longitude":-102.883728,"type":"0","fuel":"0","open":"3:00","close":"15:00","monday":"Yes","tuesday":"Yes","wednesday":"Yes","thursday":"Yes","friday":"Yes","saturday":"No","sunday":"","vehicle":0,"payment":"0","flow":2,"special":""},{"id":20266,"name":"Clean Energy - Lee's Summit","status":"1","address":"500 SE Transport Dr.","city":"Lee's Summit","state":"MO","zip":"64081","country":"USA","latitude":38.894022,"longitude":-94.361318,"type":"0","fuel":"0","open":"4:00","close":"16:00","monday":"Yes","tuesday":"Yes","wednesday":"Yes","thursday":"Yes","friday":"Yes","saturday":"No","sunday":"","vehicle":0,"payment":"0","flow":2,"special":""},{"id":20269,"name":"Clean Energy - Monroe NJ","status":"0","address":"Abeel Rd.","city":"Monroe Township","state":"NJ","zip":"8831","country":"USA","latitude":40.341478,"longitude":-74.480653,"type":"0","fuel":"1","open":"5:00","close":"17:00","monday":"Yes","tuesday":"Yes","wednesday":"Yes","thursday":"Yes","friday":"Yes","saturday":"No","sunday":"","vehicle":0,"payment":"0","flow":2,"special":""},{"id":20270,"name":"Clean Energy - Port Wentworth","status":"0","address":"400 O Leary Rd","city":"Port Wentworth ","state":"GA","zip":"31407","country":"USA","latitude":32.193709,"longitude":-81.19131,"type":"0","fuel":"0","open":"6:00","close":"18:00","monday":"Yes","tuesday":"Yes","wednesday":"Yes","thursday":"Yes","friday":"Yes","saturday":"No","sunday":"","vehicle":0,"payment":"0","flow":2,"special":""},{"id":20273,"name":"Clean Energy - La Vergne","status":"0","address":"Charter Place","city":"La Vergne","state":"TN","zip":"37086","country":"USA","latitude":35.992009,"longitude":-86.596536,"type":"0","fuel":"0","open":"7:00","close":"19:00","monday":"Yes","tuesday":"Yes","wednesday":"Yes","thursday":"Yes","friday":"Yes","saturday":"No","sunday":"","vehicle":0,"payment":"0","flow":2,"special":""},{"id":20275,"name":"Clean Energy - Tacoma","status":"0","address":"3013 20th Street East","city":"Fife","state":"WA","zip":"98424","country":"USA","latitude":47.2397,"longitude":-122.3885,"type":"0","fuel":"0","open":"8:00","close":"20:00","monday":"Yes","tuesday":"Yes","wednesday":"Yes","thursday":"Yes","friday":"Yes","saturday":"No","sunday":"","vehicle":0,"payment":"0","flow":2,"special":""},{"id":20287,"name":"Clean Energy - Valdosta","status":"1","address":"Madison Highway","city":"Valdosta","state":"GA","zip":"31601","country":"USA","latitude":30.754537,"longitude":-83.27152,"type":"0","fuel":"2","open":"9:00","close":"21:00","monday":"Yes","tuesday":"Yes","wednesday":"Yes","thursday":"Yes","friday":"Yes","saturday":"No","sunday":"","vehicle":0,"payment":"0","flow":2,"special":""},{"id":20309,"name":"Clean Energy - Shrewsbury MA","status":"0","address":"193 Hartford Tunpike","city":"Shrewsbury","state":"MA","zip":"1545","country":"USA","latitude":42.248497,"longitude":-71.724927,"type":"0","fuel":"0","open":"10:00","close":"22:00","monday":"Yes","tuesday":"Yes","wednesday":"Yes","thursday":"Yes","friday":"Yes","saturday":"No","sunday":"","vehicle":0,"payment":"0","flow":2,"special":""},{"id":20312,"name":"Clean Energy - Doraville GA","status":"0","address":"4405 NE Expressway","city":"Doraville","state":"GA","zip":"30340","country":"USA","latitude":33.898751,"longitude":-84.246249,"type":"0","fuel":"0","open":"11:00","close":"23:00","monday":"Yes","tuesday":"Yes","wednesday":"Yes","thursday":"Yes","friday":"Yes","saturday":"No","sunday":"","vehicle":0,"payment":"0","flow":2,"special":""},{"id":20313,"name":"Clean Energy - Bridgview","status":"0","address":"71st Street","city":"Bridgeview","state":"IL","zip":"60455","country":"USA","latitude":41.763526,"longitude":-87.806935,"type":"0","fuel":"0","open":"12:00","close":"0:00","monday":"Yes","tuesday":"Yes","wednesday":"Yes","thursday":"Yes","friday":"Yes","saturday":"No","sunday":"","vehicle":0,"payment":"0","flow":2,"special":""},{"id":20315,"name":"Clean Energy - San Jose 4th St.","status":"0","address":"1170 N. 4th Street","city":"San Jose","state":"CA","zip":"95112","country":"USA","latitude":37.360285,"longitude":-121.903763,"type":"0","fuel":"1","open":"13:00","close":"1:00","monday":"Yes","tuesday":"Yes","wednesday":"Yes","thursday":"Yes","friday":"Yes","saturday":"No","sunday":"","vehicle":0,"payment":"0","flow":2,"special":""},{"id":20332,"name":"Clean Energy - Chicago North Kimball","status":"0","address":"3330 N. Kimball Ave","city":"Chicago","state":"IL","zip":"60618","country":"USA","latitude":41.942061,"longitude":-87.712964,"type":"0","fuel":"0","open":"14:00","close":"2:00","monday":"Yes","tuesday":"Yes","wednesday":"Yes","thursday":"Yes","friday":"Yes","saturday":"No","sunday":"","vehicle":0,"payment":"0","flow":2,"special":""},{"id":20340,"name":"Clean Energy - Lamar Ave. Memphis","status":"0","address":"5115 Lamar Avenue","city":"Memphis","state":"TN","zip":"38118","country":"USA","latitude":35.014951,"longitude":-89.894906,"type":"0","fuel":"0","open":"15:00","close":"3:00","monday":"Yes","tuesday":"Yes","wednesday":"Yes","thursday":"Yes","friday":"Yes","saturday":"No","sunday":"","vehicle":0,"payment":"0","flow":2,"special":""},{"id":20352,"name":"Clean Energy - Hagerstown Pilot� #179","status":"0","address":"11549 Hopewell Rd.","city":"Hagerstown","state":"MD","zip":"21740","country":"USA","latitude":39.6285,"longitude":-77.784818,"type":"0","fuel":"1","open":"16:00","close":"4:00","monday":"Yes","tuesday":"Yes","wednesday":"Yes","thursday":"Yes","friday":"Yes","saturday":"No","sunday":"","vehicle":0,"payment":"0","flow":2,"special":""},{"id":20362,"name":"Clean Energy - City of Columbia","status":"0","address":"Lake Ridgeway Drive","city":"Columbia","state":"MO","zip":"65202","country":"USA","latitude":38.970851,"longitude":-92.294005,"type":"1","fuel":"0","open":"17:00","close":"5:00","monday":"Yes","tuesday":"Yes","wednesday":"Yes","thursday":"Yes","friday":"Yes","saturday":"No","sunday":"","vehicle":0,"payment":"0","flow":2,"special":""},{"id":20406,"name":"Clean Energy - Atlanta Fulton Industrial Park","status":"0","address":"5955 Bakers Ferry Road","city":"Atlanta","state":"GA","zip":"30338","country":"USA","latitude":33.732509,"longitude":-84.574315,"type":"0","fuel":"0","open":"18:00","close":"6:00","monday":"Yes","tuesday":"Yes","wednesday":"Yes","thursday":"Yes","friday":"Yes","saturday":"No","sunday":"","vehicle":0,"payment":"0","flow":2,"special":""},{"id":20425,"name":"Clean Energy - Allentown PA","status":"0","address":"7649 Penn Drive","city":"Allentown","state":"PA","zip":"18106","country":"USA","latitude":40.576944,"longitude":-75.618765,"type":"0","fuel":"1","open":"19:00","close":"7:00","monday":"Yes","tuesday":"Yes","wednesday":"Yes","thursday":"Yes","friday":"Yes","saturday":"No","sunday":"","vehicle":0,"payment":"0","flow":2,"special":""},{"id":20429,"name":"Clean Energy - Berwyn PA","status":"0","address":"1050 Swedesford Road","city":"Berwyn","state":"PA","zip":"19312","country":"USA","latitude":40.059245,"longitude":-75.462135,"type":"0","fuel":"0","open":"20:00","close":"8:00","monday":"Yes","tuesday":"Yes","wednesday":"Yes","thursday":"Yes","friday":"Yes","saturday":"No","sunday":"","vehicle":0,"payment":"0","flow":2,"special":""},{"id":20430,"name":"Clean Energy - Coatesville PA","status":"0","address":"175 N. Caln Rd.","city":"Coatsville","state":"PA","zip":"19320","country":"USA","latitude":39.993857,"longitude":-75.787888,"type":"0","fuel":"0","open":"21:00","close":"9:00","monday":"Yes","tuesday":"Yes","wednesday":"Yes","thursday":"Yes","friday":"Yes","saturday":"No","sunday":"","vehicle":0,"payment":"0","flow":2,"special":""},{"id":20431,"name":"Clean Energy - Phoenixville PA","status":"0","address":"1101 W. Bridge Street","city":"Phoenixville","state":"PA","zip":"19460","country":"USA","latitude":40.124221,"longitude":-75.535756,"type":"0","fuel":"1","open":"22:00","close":"10:00","monday":"Yes","tuesday":"Yes","wednesday":"Yes","thursday":"Yes","friday":"Yes","saturday":"No","sunday":"","vehicle":0,"payment":"0","flow":2,"special":""},{"id":20432,"name":"Clean Energy - Plymouth Meeting PA","status":"0","address":"680 Ridge Pike","city":"Plymouth Meeting","state":"PA","zip":"19462","country":"USA","latitude":40.098155,"longitude":-75.296866,"type":"0","fuel":"0","open":"23:00","close":"11:00","monday":"Yes","tuesday":"Yes","wednesday":"Yes","thursday":"Yes","friday":"Yes","saturday":"No","sunday":"","vehicle":0,"payment":"0","flow":2,"special":""},{"id":20433,"name":"Clean Energy - Eddystone PA","status":"0","address":"1510 Chester Pike","city":"Eddystone","state":"PA","zip":"19022","country":"USA","latitude":39.863849,"longitude":-75.338378,"type":"0","fuel":"0","open":"0:00","close":"12:00","monday":"Yes","tuesday":"Yes","wednesday":"Yes","thursday":"Yes","friday":"Yes","saturday":"No","sunday":"","vehicle":0,"payment":"0","flow":2,"special":""},{"id":20434,"name":"Clean Energy - Warminster PA","status":"0","address":"388 Park Ave.","city":"Warminster","state":"PA","zip":"18794","country":"USA","latitude":40.195532,"longitude":-75.09085,"type":"0","fuel":"0","open":"1:00","close":"13:00","monday":"Yes","tuesday":"Yes","wednesday":"Yes","thursday":"Yes","friday":"Yes","saturday":"No","sunday":"","vehicle":0,"payment":"0","flow":2,"special":""},{"id":41247,"name":"Clean Energy - Republic Services - Nampa ","status":"1","address":"3015 East Comstock Avenue","city":"Nampa","state":"ID","zip":"83687","country":"USA","latitude":43.592888,"longitude":-116.533383,"type":"1","fuel":"2","open":"2:00","close":"14:00","monday":"Yes","tuesday":"Yes","wednesday":"Yes","thursday":"Yes","friday":"Yes","saturday":"No","sunday":"","vehicle":0,"payment":"0","flow":2,"special":""},{"id":null,"name":"Clean Energy - Arcadia - Foothill Transit","status":"1","address":"5640 Peck Road","city":"Arcadia","state":"CA","zip":"91006","country":"USA","latitude":34.105711,"longitude":-118.007122,"type":"1","fuel":"0","open":"3:00","close":"15:00","monday":"Yes","tuesday":"Yes","wednesday":"Yes","thursday":"Yes","friday":"Yes","saturday":"No","sunday":"","vehicle":0,"payment":"0","flow":2,"special":""},{"id":18453,"name":"Clean Energy - Lathrop CA","status":"0","address":"1250 East Madruga Road","city":"Lathrop","state":"CA","zip":"95330","country":"USA","latitude":37.788836,"longitude":-121.289685,"type":"0","fuel":"0","open":"4:00","close":"16:00","monday":"Yes","tuesday":"Yes","wednesday":"Yes","thursday":"Yes","friday":"Yes","saturday":"No","sunday":"","vehicle":0,"payment":"0","flow":2,"special":""},{"id":null,"name":"Clean Energy - Las Vegas - A Street  ","status":"1","address":"701 A St","city":"Las Vegas","state":"NV","zip":"89106","country":"USA","latitude":36.180229,"longitude":-115.143369,"type":"0","fuel":"1","open":"5:00","close":"17:00","monday":"Yes","tuesday":"Yes","wednesday":"Yes","thursday":"Yes","friday":"Yes","saturday":"No","sunday":"","vehicle":0,"payment":"0","flow":2,"special":""},{"id":null,"name":"Clean Energy - Houston Flying J #729","status":"0","address":"15919 North Freeway","city":"Houston","state":"TX","zip":"77090","country":"USA","latitude":29.998889,"longitude":-95.426389,"type":"0","fuel":"0","open":"6:00","close":"18:00","monday":"Yes","tuesday":"Yes","wednesday":"Yes","thursday":"Yes","friday":"Yes","saturday":"No","sunday":"","vehicle":0,"payment":"0","flow":2,"special":""}]}